candidate_id,canonical_id,candidate_status,title_ko,category,subcategory,content_type,latitude,longitude,coordinate_distance_m,hours,address,phone,external_official_url,source_detail_url,image_url,visitbusan_uc_seq,linked_source_keys,field_provenance,category_compatibility_method,review_reason,merge_target_id
busan-A-00001,busan-A-00001,api_only_existing,흰여울문화마을,attraction,unknown,,35.07885,129.04402,,,부산광역시 영도구 흰여울길,,,,https://www.visitbusan.net/uploadImgs/files/cntnts/20191222164810529_ttiel,,AttractionService:255:ko,"{""title_ko"":""canonical"",""image_url"":""canonical"",""latitude"":""canonical"",""longitude"":""canonical""}",canonical_only,,
busan-A-00002,busan-A-00002,api_only_existing,깡깡이 예술마을,attraction,unknown,,35.092648,129.03255,,,부산광역시 영도구 대평북로 36 깡깡이 안내센터,,,,https://www.visitbusan.net/uploadImgs/files/cntnts/20191222171209005_ttiel,,AttractionService:256:ko,"{""title_ko"":""canonical"",""image_url"":""canonical"",""latitude"":""canonical"",""longitude"":""canonical""}",canonical_only,,
busan-A-00003,busan-A-00003,api_only_existing,"국립해양박물관(한,영,중간,중번,일)",attraction,unknown,,35.078728,129.08018,,,부산광역시 영도구 해양로301번길 45,,,,https://www.visitbusan.net/uploadImgs/files/cntnts/20191222175627506_ttiel,,AttractionService:257:ko,"{""title_ko"":""canonical"",""image_url"":""canonical"",""latitude"":""canonical"",""longitude"":""canonical""}",canonical_only,,
busan-A-00004,busan-A-00004,api_only_existing,태종대,attraction,unknown,,35.052643,129.0878,,,부산광역시 영도구 전망로 24,,,,https://www.visitbusan.net/uploadImgs/files/cntnts/20191222180829962_ttiel,,AttractionService:258:ko,"{""title_ko"":""canonical"",""image_url"":""canonical"",""latitude"":""canonical"",""longitude"":""canonical""}",canonical_only,,
busan-A-00005,busan-A-00005,api_only_existing,죽성성당,attraction,unknown,,35.241013,129.24864,,,부산광역시 기장군 기장읍 죽성리 134-7,,,,https://www.visitbusan.net/uploadImgs/files/cntnts/20191222181829937_ttiel,,AttractionService:259:ko,"{""title_ko"":""canonical"",""image_url"":""canonical"",""latitude"":""canonical"",""longitude"":""canonical""}",canonical_only,,
busan-A-00006,busan-A-00006,api_only_existing,"아홉산 숲 (한,영,중간,중번,일)",attraction,unknown,,35.287334,129.17046,,,부산광역시 기장군 철마면 웅천리 520-10,,,,https://www.visitbusan.net/uploadImgs/files/cntnts/20191222185645736_ttiel,,AttractionService:260:ko,"{""title_ko"":""canonical"",""image_url"":""canonical"",""latitude"":""canonical"",""longitude"":""canonical""}",canonical_only,,
busan-A-00007,busan-A-00007,api_only_existing,"해동용궁사 (한,영,중간,중번,일)",attraction,unknown,,35.188583,129.22346,,,부산광역시 기장군 기장읍 용궁길 86,,,,https://www.visitbusan.net/uploadImgs/files/cntnts/20191222190823385_ttiel,,AttractionService:261:ko,"{""title_ko"":""canonical"",""image_url"":""canonical"",""latitude"":""canonical"",""longitude"":""canonical""}",canonical_only,,
busan-A-00008,busan-A-00008,api_only_existing,임랑해수욕장,attraction,unknown,,35.31905,129.26451,,,부산광역시 기장군 장안읍 임랑리,,,,https://www.visitbusan.net/uploadImgs/files/cntnts/20191224093809621_ttiel,,AttractionService:262:ko,"{""title_ko"":""canonical"",""image_url"":""canonical"",""latitude"":""canonical"",""longitude"":""canonical""}",canonical_only,,
busan-A-00009,busan-A-00009,api_only_existing,"문화공감 수정, 초량1941(한,영,중간,중번,일)",attraction,unknown,,35.125793,129.04265,,,문화공감 수정 : 부산광역시 동구 홍곡로 75 초량1941 : 부산광역시 동구 망양로 533-5,,,,https://www.visitbusan.net/uploadImgs/files/cntnts/20191224171115847_ttiel,,AttractionService:264:ko,"{""title_ko"":""canonical"",""image_url"":""canonical"",""latitude"":""canonical"",""longitude"":""canonical""}",canonical_only,,
busan-A-00010,busan-A-00010,existing_enriched,"부산바다의 과거와 현재, 일광해수욕장",attraction,unknown,attraction,35.259953,129.23373,,09:00~18:00 (개장 중 입수가능 시간),부산광역시 기장군 일광읍 삼성리 143-10,051-709-5446,,https://www.visitbusan.net/kr/index.do?menuCd=DOM_000000201001001000&uc_seq=265&lang_cd=ko,https://www.visitbusan.net/uploadImgs/files/cntnts/20191225143353231_ttiel,265,VisitBusanContent:attraction:265:ko|AttractionService:265:ko,"{""title_ko"":""canonical"",""hours"":""visitbusan"",""address"":""visitbusan"",""phone"":""visitbusan"",""external_official_url"":""none"",""image_url"":""canonical"",""latitude"":""canonical"",""longitude"":""canonical""}",geo_title_category,,
busan-A-00011,busan-A-00011,existing_enriched,"구 백제병원 (한,영,중간,중번,일)",attraction,unknown,attraction,35.116383,129.03917,,브라운핸즈백제 10:00 - 21:30 (라스트 오더 21:20) 갤러리 이비나인 11:00 - 18:00,부산광역시 동구 중앙대로209번길 16,브라운핸즈백제 051-464-0332 갤러리 이비나인 0507-1317-8918,,https://www.visitbusan.net/kr/index.do?menuCd=DOM_000000201001001000&uc_seq=266&lang_cd=ko,https://www.visitbusan.net/uploadImgs/files/cntnts/20191225145805369_ttiel,266,VisitBusanContent:attraction:266:ko|AttractionService:266:ko,"{""title_ko"":""canonical"",""hours"":""visitbusan"",""address"":""visitbusan"",""phone"":""visitbusan"",""external_official_url"":""none"",""image_url"":""canonical"",""latitude"":""canonical"",""longitude"":""canonical""}",geo_title_category,,
busan-A-00012,busan-A-00012,existing_enriched,백산기념관,attraction,unknown,attraction,35.101955,129.03456,,"화~금 10:00~18:00 토, 일 10:00~17:00",부산광역시 중구 백산길 11,051-600-4041,http://www.bsjunggu.go.kr/tour/index.junggu?menuCd=DOM_000000208002001000&link=success&cpath=%2Ftour,https://www.visitbusan.net/kr/index.do?menuCd=DOM_000000201001001000&uc_seq=267&lang_cd=ko,https://www.visitbusan.net/uploadImgs/files/cntnts/20191225150331107_ttiel,267,VisitBusanContent:attraction:267:ko|AttractionService:267:ko,"{""title_ko"":""canonical"",""hours"":""visitbusan"",""address"":""visitbusan"",""phone"":""visitbusan"",""external_official_url"":""visitbusan"",""image_url"":""canonical"",""latitude"":""canonical"",""longitude"":""canonical""}",geo_title_category,,
busan-A-00013,busan-A-00013,api_only_existing,"한성1918 부산생활문화센터(한,영,중간,중번,일)",attraction,unknown,,35.10178,129.03444,,,부산광역시 중구 백산길 13,,,,https://www.visitbusan.net/uploadImgs/files/cntnts/20191225150936833_ttiel,,AttractionService:268:ko,"{""title_ko"":""canonical"",""image_url"":""canonical"",""latitude"":""canonical"",""longitude"":""canonical""}",canonical_only,,
busan-A-00014,busan-A-00014,existing_enriched,"조선통신사역사관(한,영,중간,중번,일)",attraction,unknown,attraction,35.135754,129.06203,,09:00~18:00 마지막 입장시간: 17:30,부산광역시 동구 자성로99,051-631-0858,http://www.tongsinsa.com/html/,https://www.visitbusan.net/kr/index.do?menuCd=DOM_000000201001001000&uc_seq=269&lang_cd=ko,https://www.visitbusan.net/uploadImgs/files/cntnts/20191225151358656_ttiel,269,VisitBusanContent:attraction:269:ko|AttractionService:269:ko,"{""title_ko"":""canonical"",""hours"":""visitbusan"",""address"":""visitbusan"",""phone"":""visitbusan"",""external_official_url"":""visitbusan"",""image_url"":""canonical"",""latitude"":""canonical"",""longitude"":""canonical""}",geo_title_category,,
busan-A-00015,busan-A-00015,existing_enriched,부산해양자연사박물관,attraction,unknown,attraction,35.22178,129.07591,,화~일 09:00~18:00(입장마감 17:00까지),부산광역시 동래구 우장춘로 175,051-553-4944~5,http://sea.busan.go.kr,https://www.visitbusan.net/kr/index.do?menuCd=DOM_000000201001001000&uc_seq=270&lang_cd=ko,https://www.visitbusan.net/uploadImgs/files/cntnts/20191225151830289_ttiel,270,VisitBusanContent:attraction:270:ko|AttractionService:270:ko,"{""title_ko"":""canonical"",""hours"":""visitbusan"",""address"":""visitbusan"",""phone"":""visitbusan"",""external_official_url"":""visitbusan"",""image_url"":""canonical"",""latitude"":""canonical"",""longitude"":""canonical""}",geo_title_category,,
busan-A-00016,busan-A-00016,api_only_existing,보수동책방골목,attraction,unknown,,35.103367,129.02663,,,부산광역시 중구 보수동1가 151-1,,,,https://www.visitbusan.net/uploadImgs/files/cntnts/20191225154726785_ttiel,,AttractionService:272:ko,"{""title_ko"":""canonical"",""image_url"":""canonical"",""latitude"":""canonical"",""longitude"":""canonical""}",canonical_only,,
busan-A-00017,busan-A-00017,api_only_existing,"임시수도기념관(한,영,중간,중번,일)",attraction,unknown,,35.103527,129.01735,,,부산광역시 서구 임시수도기념로 45,,,,https://www.visitbusan.net/uploadImgs/files/cntnts/20250929174908393_ttiel,,AttractionService:273:ko,"{""title_ko"":""canonical"",""image_url"":""canonical"",""latitude"":""canonical"",""longitude"":""canonical""}",canonical_only,,
busan-A-00018,busan-A-00018,api_only_existing,"동아대석당박물관(한,영,중간,중번,일)",attraction,unknown,,35.10497,129.01926,,,부산광역시 서구 구덕로 225,,,,https://www.visitbusan.net/uploadImgs/files/cntnts/20191225160959194_ttiel,,AttractionService:274:ko,"{""title_ko"":""canonical"",""image_url"":""canonical"",""latitude"":""canonical"",""longitude"":""canonical""}",canonical_only,,
busan-A-00019,busan-A-00019,api_only_existing,"국립일제강제동원역사관(한,영,중간,중번,일)",attraction,unknown,,35.124355,129.09192,,,부산광역시 남구 홍곡로320번길 100,,,,https://www.visitbusan.net/uploadImgs/files/cntnts/20191225162953256_ttiel,,AttractionService:275:ko,"{""title_ko"":""canonical"",""image_url"":""canonical"",""latitude"":""canonical"",""longitude"":""canonical""}",canonical_only,,
busan-A-00020,busan-A-00020,api_only_existing,부산박물관,attraction,unknown,,35.12957,129.09451,,,부산광역시 남구 유엔평화로 63,,,,https://www.visitbusan.net/uploadImgs/files/cntnts/20191225163741459_ttiel,,AttractionService:276:ko,"{""title_ko"":""canonical"",""image_url"":""canonical"",""latitude"":""canonical"",""longitude"":""canonical""}",canonical_only,,
busan-A-00021,busan-A-00021,api_only_existing,"유엔기념공원, 유엔평화기념관(한,영,중간,중번,일)",attraction,unknown,,35.1277,129.09775,,,유엔기념공원 : 부산광역시 남구 유엔평화로 93  유엔평화기념관 : 부산광역시 남구 홍곡로320번길 106,,,,https://www.visitbusan.net/uploadImgs/files/cntnts/20191225164342360_ttiel,,AttractionService:277:ko,"{""title_ko"":""canonical"",""image_url"":""canonical"",""latitude"":""canonical"",""longitude"":""canonical""}",canonical_only,,
busan-A-00022,busan-A-00022,api_only_existing,오륙도,attraction,unknown,,35.102177,129.12334,,,부산광역시 남구 오륙도로 137,,,,https://www.visitbusan.net/uploadImgs/files/cntnts/20191225164921130_ttiel,,AttractionService:278:ko,"{""title_ko"":""canonical"",""image_url"":""canonical"",""latitude"":""canonical"",""longitude"":""canonical""}",canonical_only,,
busan-A-00023,busan-A-00023,api_only_existing,신선대,attraction,unknown,,35.102272,129.10277,,,부산광역시 남구 신선대산복로 174번길 78,,,,https://www.visitbusan.net/uploadImgs/files/cntnts/20191225165635368_ttiel,,AttractionService:279:ko,"{""title_ko"":""canonical"",""image_url"":""canonical"",""latitude"":""canonical"",""longitude"":""canonical""}",canonical_only,,
busan-A-00024,busan-A-00024,api_only_existing,"송정해수욕장, 죽도공원",attraction,unknown,,35.1786,129.19966,,,부산광역시 해운대구 송정해변로 62,,,,https://www.visitbusan.net/uploadImgs/files/cntnts/20230630185239164_ttiel,,AttractionService:280:ko,"{""title_ko"":""canonical"",""image_url"":""canonical"",""latitude"":""canonical"",""longitude"":""canonical""}",canonical_only,,
busan-A-00025,busan-A-00025,api_only_existing,"아난티 코브 이터널저니(한,영,중간,중번,일)",attraction,unknown,,35.197235,129.22784,,,부산광역시 기장군 기장읍 기장해안로 268-32,,,,https://www.visitbusan.net/uploadImgs/files/cntnts/20191225170855698_ttiel,,AttractionService:281:ko,"{""title_ko"":""canonical"",""image_url"":""canonical"",""latitude"":""canonical"",""longitude"":""canonical""}",canonical_only,,
busan-A-00026,busan-A-00026,api_only_existing,민락수변공원,attraction,unknown,,35.15487,129.13399,,,부산광역시 수영구 민락동 110-19,,,,https://www.visitbusan.net/uploadImgs/files/cntnts/20191225174730014_ttiel,,AttractionService:285:ko,"{""title_ko"":""canonical"",""image_url"":""canonical"",""latitude"":""canonical"",""longitude"":""canonical""}",canonical_only,,
busan-A-00027,busan-A-00027,api_only_existing,"송도해수욕장(한,영,중간,중번,일)",attraction,unknown,,35.07595,129.01694,,,부산광역시 서구 송도해변로 100,,,,https://www.visitbusan.net/uploadImgs/files/cntnts/20191225175459392_ttiel,,AttractionService:286:ko,"{""title_ko"":""canonical"",""image_url"":""canonical"",""latitude"":""canonical"",""longitude"":""canonical""}",canonical_only,,
busan-A-00028,busan-A-00028,api_only_existing,아미산전망대,attraction,unknown,,35.052727,128.96075,,,부산광역시 사하구 다대낙조2길 77,,,,https://www.visitbusan.net/uploadImgs/files/cntnts/20191225180243523_ttiel,,AttractionService:287:ko,"{""title_ko"":""canonical"",""image_url"":""canonical"",""latitude"":""canonical"",""longitude"":""canonical""}",canonical_only,,
busan-A-00029,busan-A-00029,api_only_existing,아미동 비석마을,attraction,unknown,,35.099068,129.0127,,,부산광역시 서구 아미로49,,,,https://www.visitbusan.net/uploadImgs/files/cntnts/20191226093554532_ttiel,,AttractionService:288:ko,"{""title_ko"":""canonical"",""image_url"":""canonical"",""latitude"":""canonical"",""longitude"":""canonical""}",canonical_only,,
busan-A-00030,busan-A-00030,api_only_existing,부산시립미술관,attraction,unknown,,35.16702,129.1369,,,부산광역시 해운대구 APEC로 58,,,,https://www.visitbusan.net/uploadImgs/files/cntnts/20191226100545553_ttiel,,AttractionService:289:ko,"{""title_ko"":""canonical"",""image_url"":""canonical"",""latitude"":""canonical"",""longitude"":""canonical""}",canonical_only,,
busan-A-00031,busan-A-00031,api_only_existing,오랑대공원,attraction,unknown,,35.205246,129.22583,,,부산 기장군 기장읍 시랑리 산1-18,,,,https://www.visitbusan.net/uploadImgs/files/cntnts/20191226101451768_ttiel,,AttractionService:290:ko,"{""title_ko"":""canonical"",""image_url"":""canonical"",""latitude"":""canonical"",""longitude"":""canonical""}",canonical_only,,
busan-A-00032,busan-A-00032,api_only_existing,국립수산과학관,attraction,unknown,,35.193687,129.22423,,,부산광역시 기장군 기장읍 기장해안로 216,,,,https://www.visitbusan.net/uploadImgs/files/cntnts/20191226102157667_ttiel,,AttractionService:291:ko,"{""title_ko"":""canonical"",""image_url"":""canonical"",""latitude"":""canonical"",""longitude"":""canonical""}",canonical_only,,
busan-A-00033,busan-A-00033,api_only_existing,요산문학관,attraction,unknown,,35.27258,129.08571,,,부산광역시 금정구 팔송로 60-6,,,,https://www.visitbusan.net/uploadImgs/files/cntnts/20191226105751809_ttiel,,AttractionService:295:ko,"{""title_ko"":""canonical"",""image_url"":""canonical"",""latitude"":""canonical"",""longitude"":""canonical""}",canonical_only,,
busan-A-00034,busan-A-00034,api_only_existing,박차정의사 생가,attraction,unknown,,35.20168,129.0904,,,부산광역시 동래구 명륜로98번길 129-10,,,,https://www.visitbusan.net/uploadImgs/files/cntnts/20191226110347271_ttiel,,AttractionService:296:ko,"{""title_ko"":""canonical"",""image_url"":""canonical"",""latitude"":""canonical"",""longitude"":""canonical""}",canonical_only,,
busan-A-00035,busan-A-00035,api_only_existing,우장춘 기념관,attraction,unknown,,35.213547,129.07202,,,부산광역시 동래구 우장춘로62번길 7,,,,https://www.visitbusan.net/uploadImgs/files/cntnts/20191226110901484_ttiel,,AttractionService:297:ko,"{""title_ko"":""canonical"",""image_url"":""canonical"",""latitude"":""canonical"",""longitude"":""canonical""}",canonical_only,,
busan-A-00036,busan-A-00036,api_only_existing,누리바라기전망대,attraction,unknown,,35.09092,129.02019,,,부산광역시 서구 남부민동 50-40,,,,https://www.visitbusan.net/uploadImgs/files/cntnts/20191226113720642_ttiel,,AttractionService:298:ko,"{""title_ko"":""canonical"",""image_url"":""canonical"",""latitude"":""canonical"",""longitude"":""canonical""}",canonical_only,,
busan-A-00037,busan-A-00037,api_only_existing,"최민식갤러리(한,영,중간,중번,일)",attraction,unknown,,35.09833,129.01472,,,부산광역시 서구 천마산로410,,,,https://www.visitbusan.net/uploadImgs/files/cntnts/20191226115628787_ttiel,,AttractionService:299:ko,"{""title_ko"":""canonical"",""image_url"":""canonical"",""latitude"":""canonical"",""longitude"":""canonical""}",canonical_only,,
busan-A-00038,busan-A-00038,api_only_existing,수영사적공원,attraction,unknown,,35.170967,129.1143,,,부산광역시 수영구 수영성로 43,,,,https://www.visitbusan.net/uploadImgs/files/cntnts/20191226132135171_ttiel,,AttractionService:301:ko,"{""title_ko"":""canonical"",""image_url"":""canonical"",""latitude"":""canonical"",""longitude"":""canonical""}",canonical_only,,
busan-A-00039,busan-A-00039,api_only_existing,부산기상관측소,attraction,unknown,,35.104973,129.03218,,,부산광역시 중구 복병산길32번길 5-11,,,,https://www.visitbusan.net/uploadImgs/files/cntnts/20191226132812226_ttiel,,AttractionService:302:ko,"{""title_ko"":""canonical"",""image_url"":""canonical"",""latitude"":""canonical"",""longitude"":""canonical""}",canonical_only,,
busan-A-00040,busan-A-00040,existing_enriched,"철새와 함께하는 아름다운 문화의 향연, 을숙도(한,영,중간,중번,일)",attraction,unknown,attraction,35.107143,128.94283,,을숙도생태공원 매일 *야간출입 제한(20:00~익일 08:00) 낙동강하구에코센터 화~일요일 09:00~18:00,부산광역시 사하구 낙동남로 1240,051-209-2031,http://wetland.busan.go.kr,https://www.visitbusan.net/kr/index.do?menuCd=DOM_000000201001001000&uc_seq=304&lang_cd=ko,https://www.visitbusan.net/uploadImgs/files/cntnts/20191226143325464_ttiel,304,VisitBusanContent:attraction:304:ko|AttractionService:304:ko,"{""title_ko"":""canonical"",""hours"":""visitbusan"",""address"":""visitbusan"",""phone"":""visitbusan"",""external_official_url"":""visitbusan"",""image_url"":""canonical"",""latitude"":""canonical"",""longitude"":""canonical""}",geo_title_category,,
busan-A-00041,busan-A-00041,api_only_existing,부산시청자미디어센터,attraction,unknown,,35.17255,129.1302,,,부산광역시 해운대구 센텀중앙로 42,,,,https://www.visitbusan.net/uploadImgs/files/cntnts/20191226152407686_ttiel,,AttractionService:308:ko,"{""title_ko"":""canonical"",""image_url"":""canonical"",""latitude"":""canonical"",""longitude"":""canonical""}",canonical_only,,
busan-A-00042,busan-A-00042,api_only_existing,"구포어린이교통공원(한,영,중간,중번,일)",attraction,unknown,,35.200676,129.0009,,,부산광역시 북구 낙동북로 687,,,,https://www.visitbusan.net/uploadImgs/files/cntnts/20191226182356876_ttiel,,AttractionService:313:ko,"{""title_ko"":""canonical"",""image_url"":""canonical"",""latitude"":""canonical"",""longitude"":""canonical""}",canonical_only,,
busan-A-00043,busan-A-00043,api_only_existing,부산솔로몬로파크,attraction,unknown,,35.200798,129.00198,,,부산광역시 북구 낙동북로 755,,,,https://www.visitbusan.net/uploadImgs/files/cntnts/20191226183133502_ttiel,,AttractionService:314:ko,"{""title_ko"":""canonical"",""image_url"":""canonical"",""latitude"":""canonical"",""longitude"":""canonical""}",canonical_only,,
busan-A-00044,busan-A-00044,api_only_existing,부산어촌민속관,attraction,unknown,,35.234074,129.00859,,,부산광역시 북구 학사로 128,,,,https://www.visitbusan.net/uploadImgs/files/cntnts/20191226184130120_ttiel,,AttractionService:315:ko,"{""title_ko"":""canonical"",""image_url"":""canonical"",""latitude"":""canonical"",""longitude"":""canonical""}",canonical_only,,
busan-A-00045,busan-A-00045,api_only_existing,삼락생태공원,attraction,unknown,,35.16884,128.97397,,,부산광역시 사상구 삼락동 29-46,,,,https://www.visitbusan.net/uploadImgs/files/cntnts/20230602100722403_ttiel,,AttractionService:325:ko,"{""title_ko"":""canonical"",""image_url"":""canonical"",""latitude"":""canonical"",""longitude"":""canonical""}",canonical_only,,
busan-A-00046,busan-A-00046,api_only_existing,"암남공원, 송도해안볼레길",attraction,unknown,,35.058804,129.01566,,,부산광역시 서구 암남동 산193,,,,https://www.visitbusan.net/uploadImgs/files/cntnts/20191227112720050_ttiel,,AttractionService:326:ko,"{""title_ko"":""canonical"",""image_url"":""canonical"",""latitude"":""canonical"",""longitude"":""canonical""}",canonical_only,,
busan-A-00047,busan-A-00047,api_only_existing,장림포구 (부네치아),attraction,unknown,,35.080727,128.95694,,,부산광역시 사하구 장림로93번길 72,,,,https://www.visitbusan.net/uploadImgs/files/cntnts/20191227160751479_ttiel,,AttractionService:333:ko,"{""title_ko"":""canonical"",""image_url"":""canonical"",""latitude"":""canonical"",""longitude"":""canonical""}",canonical_only,,
busan-A-00048,busan-A-00048,api_only_existing,가덕도,attraction,unknown,,35.022896,128.8172,,,부산광역시 강서구 가덕해안로 21,,,,https://www.visitbusan.net/uploadImgs/files/cntnts/20191227161822663_ttiel,,AttractionService:334:ko,"{""title_ko"":""canonical"",""image_url"":""canonical"",""latitude"":""canonical"",""longitude"":""canonical""}",canonical_only,,
busan-A-00049,busan-A-00049,api_only_existing,렛츠런파크 부산경남,attraction,unknown,,35.1566,128.87521,,,부산광역시 강서구 가락대로 929,,,,https://www.visitbusan.net/uploadImgs/files/cntnts/20191227163229549_ttiel,,AttractionService:335:ko,"{""title_ko"":""canonical"",""image_url"":""canonical"",""latitude"":""canonical"",""longitude"":""canonical""}",canonical_only,,
busan-A-00050,busan-A-00050,api_only_existing,국립부산과학관,attraction,unknown,,35.20468,129.2127,,,부산광역시 기장군 기장읍 동부산관광6로 59,,,,https://www.visitbusan.net/uploadImgs/files/cntnts/20230901132543063_ttiel,,AttractionService:340:ko,"{""title_ko"":""canonical"",""image_url"":""canonical"",""latitude"":""canonical"",""longitude"":""canonical""}",canonical_only,,
busan-A-00051,busan-A-00051,api_only_existing,송상현광장,attraction,unknown,,35.166397,129.06595,,,부산광역시 부산진구 중앙대로 지하 818(전포동),,,,https://www.visitbusan.net/uploadImgs/files/cntnts/20191227175243198_ttiel,,AttractionService:343:ko,"{""title_ko"":""canonical"",""image_url"":""canonical"",""latitude"":""canonical"",""longitude"":""canonical""}",canonical_only,,
busan-A-00052,busan-A-00052,api_only_existing,어린이대공원,attraction,unknown,,35.184998,129.04153,,,부산광역시 부산진구 새싹로 295,,,,https://www.visitbusan.net/uploadImgs/files/cntnts/20191227180139517_ttiel,,AttractionService:344:ko,"{""title_ko"":""canonical"",""image_url"":""canonical"",""latitude"":""canonical"",""longitude"":""canonical""}",canonical_only,,
busan-A-00053,busan-A-00053,api_only_existing,국립부산국악원,attraction,unknown,,35.17132,129.05424,,,부산광역시 부산진구 국악로2,,,,https://www.visitbusan.net/uploadImgs/files/cntnts/20191227181259877_ttiel,,AttractionService:346:ko,"{""title_ko"":""canonical"",""image_url"":""canonical"",""latitude"":""canonical"",""longitude"":""canonical""}",canonical_only,,
busan-A-00054,busan-A-00054,api_only_existing,삼광사,attraction,unknown,,35.175694,129.04338,,,부산광역시 부산진구 초읍천로43번길 77,,,,https://www.visitbusan.net/uploadImgs/files/cntnts/20191227184611977_ttiel,,AttractionService:347:ko,"{""title_ko"":""canonical"",""image_url"":""canonical"",""latitude"":""canonical"",""longitude"":""canonical""}",canonical_only,,
busan-A-00055,busan-A-00055,api_only_existing,청사포와 미포,attraction,unknown,,35.1602,129.19138,,,청사포 부산광역시  해운대구 청사포로128번길 25 미포 부산광역시 해운대구 달맞이길62번길,,,,https://www.visitbusan.net/uploadImgs/files/cntnts/20191227190325222_ttiel,,AttractionService:348:ko,"{""title_ko"":""canonical"",""image_url"":""canonical"",""latitude"":""canonical"",""longitude"":""canonical""}",canonical_only,,
busan-A-00056,busan-A-00056,api_only_existing,부산시민공원,attraction,unknown,,35.16841,129.05739,,,부산광역시 부산진구 시민공원로 73,,,,https://www.visitbusan.net/uploadImgs/files/cntnts/20191227194942971_ttiel,,AttractionService:354:ko,"{""title_ko"":""canonical"",""image_url"":""canonical"",""latitude"":""canonical"",""longitude"":""canonical""}",canonical_only,,
busan-A-00057,busan-A-00057,api_only_existing,"호천마을(한,영,중간,중번,일)",attraction,unknown,,35.144295,129.05106,,,부산광역시 부산진구 엄광로 491,,,,https://www.visitbusan.net/uploadImgs/files/cntnts/20191227202219554_ttiel,,AttractionService:358:ko,"{""title_ko"":""canonical"",""image_url"":""canonical"",""latitude"":""canonical"",""longitude"":""canonical""}",canonical_only,,
busan-A-00058,busan-A-00058,api_only_existing,"봉래산(한,영,중간,중번,일)",attraction,unknown,,35.08219,129.05524,,,부산광역시 영도구 신선동3가 산3,,,,https://www.visitbusan.net/uploadImgs/files/cntnts/20191227202829011_ttiel,,AttractionService:359:ko,"{""title_ko"":""canonical"",""image_url"":""canonical"",""latitude"":""canonical"",""longitude"":""canonical""}",canonical_only,,
busan-A-00059,busan-A-00059,api_only_existing,영화의 거리,attraction,unknown,,35.154633,129.14278,,,부산광역시 해운대구 마린시티1로 91,,,,https://www.visitbusan.net/uploadImgs/files/cntnts/20191227203859552_ttiel,,AttractionService:361:ko,"{""title_ko"":""canonical"",""image_url"":""canonical"",""latitude"":""canonical"",""longitude"":""canonical""}",canonical_only,,
busan-A-00060,busan-A-00060,api_only_existing,APEC나루공원,attraction,unknown,,35.170307,129.12564,,,부산광역시 해운대구 수영강변대로 85,,,,https://www.visitbusan.net/uploadImgs/files/cntnts/20191227204420832_ttiel,,AttractionService:362:ko,"{""title_ko"":""canonical"",""image_url"":""canonical"",""latitude"":""canonical"",""longitude"":""canonical""}",canonical_only,,
busan-A-00061,busan-A-00061,api_only_existing,"40계단, 문화관",attraction,unknown,,35.103977,129.0346,,,부산광역시 중구 동광길49,,,,https://www.visitbusan.net/uploadImgs/files/cntnts/20191229141716592_ttiel,,AttractionService:364:ko,"{""title_ko"":""canonical"",""image_url"":""canonical"",""latitude"":""canonical"",""longitude"":""canonical""}",canonical_only,,
busan-A-00062,busan-A-00062,api_only_existing,감천문화마을,attraction,unknown,,35.095787,129.00926,,,부산광역시 사하구 감내2로 203,,,,https://www.visitbusan.net/uploadImgs/files/cntnts/20191229142305006_ttiel,,AttractionService:365:ko,"{""title_ko"":""canonical"",""image_url"":""canonical"",""latitude"":""canonical"",""longitude"":""canonical""}",canonical_only,,
busan-A-00063,busan-A-00063,api_only_existing,다대포 해수욕장,attraction,unknown,,35.04652,128.96283,,,부산광역시 사하구 몰운대1길 14,,,,https://www.visitbusan.net/uploadImgs/files/cntnts/20191229143230630_ttiel,,AttractionService:366:ko,"{""title_ko"":""canonical"",""image_url"":""canonical"",""latitude"":""canonical"",""longitude"":""canonical""}",canonical_only,,
busan-A-00064,busan-A-00064,api_only_existing,부산영화체험박물관/씨네뮤지엄,attraction,unknown,,35.101692,129.0337,,,부산광역시 중구 대청로126번길 12,,,,https://www.visitbusan.net/uploadImgs/files/cntnts/20191229144834500_ttiel,,AttractionService:367:ko,"{""title_ko"":""canonical"",""image_url"":""canonical"",""latitude"":""canonical"",""longitude"":""canonical""}",canonical_only,,
busan-A-00065,busan-A-00065,api_only_existing,"용두산공원(한,영,중간,중번,일)",attraction,unknown,,35.100723,129.03264,,,부산광역시 중구 용두산길 37-55,,,,https://www.visitbusan.net/uploadImgs/files/cntnts/20191229145728609_ttiel,,AttractionService:368:ko,"{""title_ko"":""canonical"",""image_url"":""canonical"",""latitude"":""canonical"",""longitude"":""canonical""}",canonical_only,,
busan-A-00066,busan-A-00066,api_only_existing,영도다리,attraction,unknown,,35.095295,129.03656,,,부산광역시 영도구 태종로 46,,,,https://www.visitbusan.net/uploadImgs/files/cntnts/20191229150331682_ttiel,,AttractionService:369:ko,"{""title_ko"":""canonical"",""image_url"":""canonical"",""latitude"":""canonical"",""longitude"":""canonical""}",canonical_only,,
busan-A-00067,busan-A-00067,existing_enriched,"중앙공원, 민주공원",attraction,unknown,attraction,35.112125,129.02792,,충혼탑 9:00 ~ 18:00(3~10월) 09:00 ~ 17:00(11~2월) 민주항쟁기념관 09:00 ~ 18:00 민주공원 09:00 ~ 18:00,중앙공원 부산광역시 서구 망양로 193번길 187 민주공원 부산광역시 중구 민주공원길 19,중앙공원 051-860-7800 민주공원 051-790-7400,,https://www.visitbusan.net/kr/index.do?menuCd=DOM_000000201001001000&uc_seq=370&lang_cd=ko,https://www.visitbusan.net/uploadImgs/files/cntnts/20191229150845004_ttiel,370,VisitBusanContent:attraction:370:ko|AttractionService:370:ko,"{""title_ko"":""canonical"",""hours"":""visitbusan"",""address"":""visitbusan"",""phone"":""visitbusan"",""external_official_url"":""none"",""image_url"":""canonical"",""latitude"":""canonical"",""longitude"":""canonical""}",geo_title_category,,
busan-A-00068,busan-A-00068,api_only_existing,"황령산 전망쉼터(한,영,중간,중번,일)",attraction,unknown,,35.158115,129.08269,,,부산광역시 남구 황령산로 391-39,,,,https://www.visitbusan.net/uploadImgs/files/cntnts/20191229151710512_ttiel,,AttractionService:371:ko,"{""title_ko"":""canonical"",""image_url"":""canonical"",""latitude"":""canonical"",""longitude"":""canonical""}",canonical_only,,
busan-A-00069,busan-A-00069,api_only_existing,F1963,attraction,unknown,,35.176933,129.11496,,,부산광역시 수영구 구락로123번길 20,,,,https://www.visitbusan.net/uploadImgs/files/cntnts/20191229152254942_ttiel,,AttractionService:372:ko,"{""title_ko"":""canonical"",""image_url"":""canonical"",""latitude"":""canonical"",""longitude"":""canonical""}",canonical_only,,
busan-A-00070,busan-A-00070,api_only_existing,해운대,attraction,unknown,,35.158474,129.15987,,,부산광역시 해운대구 해운대해변로 264,,,,https://www.visitbusan.net/uploadImgs/files/cntnts/20191229153530528_ttiel,,AttractionService:373:ko,"{""title_ko"":""canonical"",""image_url"":""canonical"",""latitude"":""canonical"",""longitude"":""canonical""}",canonical_only,,
busan-A-00071,busan-A-00071,api_only_existing,광안리해수욕장,attraction,unknown,,35.15318,129.11887,,,부산광역시 수영구 광안해변로 219,,,,https://www.visitbusan.net/uploadImgs/files/cntnts/20191229160529389_ttiel,,AttractionService:377:ko,"{""title_ko"":""canonical"",""image_url"":""canonical"",""latitude"":""canonical"",""longitude"":""canonical""}",canonical_only,,
busan-A-00072,busan-A-00072,api_only_existing,금정산,attraction,unknown,,35.280136,129.0512,,,부산광역시 금정구 금성동,,,,https://www.visitbusan.net/uploadImgs/files/cntnts/20191230180640227_ttiel,,AttractionService:396:ko,"{""title_ko"":""canonical"",""image_url"":""canonical"",""latitude"":""canonical"",""longitude"":""canonical""}",canonical_only,,
busan-A-00073,busan-A-00073,api_only_existing,금강공원&식물원,attraction,unknown,,35.22047,129.07494,,,부산 동래구 우장춘로 175-146 칠성암,,,,https://www.visitbusan.net/uploadImgs/files/cntnts/20191230181126685_ttiel,,AttractionService:397:ko,"{""title_ko"":""canonical"",""image_url"":""canonical"",""latitude"":""canonical"",""longitude"":""canonical""}",canonical_only,,
busan-A-00074,busan-A-00074,api_only_existing,"범어사 (한,영,중간,중번,일)",attraction,unknown,,35.283646,129.06854,,,부산광역시 금정구 범어사로 250,,,,https://www.visitbusan.net/uploadImgs/files/cntnts/20191230190101989_ttiel,,AttractionService:402:ko,"{""title_ko"":""canonical"",""image_url"":""canonical"",""latitude"":""canonical"",""longitude"":""canonical""}",canonical_only,,
busan-A-00075,busan-A-00075,api_only_existing,동래읍성,attraction,unknown,,35.20975,129.08997,,,부산 동래구 명륜동 산48-2,,,,https://www.visitbusan.net/uploadImgs/files/cntnts/20191230194923757_ttiel,,AttractionService:409:ko,"{""title_ko"":""canonical"",""image_url"":""canonical"",""latitude"":""canonical"",""longitude"":""canonical""}",canonical_only,,
busan-A-00076,busan-A-00076,api_only_existing,상해거리,attraction,unknown,,35.113808,129.03786,,,부산광역시 동구 중앙대로179번길 1,,,,https://www.visitbusan.net/uploadImgs/files/cntnts/20191230203235198_ttiel,,AttractionService:415:ko,"{""title_ko"":""canonical"",""image_url"":""canonical"",""latitude"":""canonical"",""longitude"":""canonical""}",canonical_only,,
busan-A-00077,busan-A-00077,api_only_existing,"이중섭문화거리(한,영,중간,중번,일)",attraction,unknown,,35.14069,129.05289,,,부산광역시 동구 증산로 168,,,,https://www.visitbusan.net/uploadImgs/files/cntnts/20191230205059771_ttiel,,AttractionService:418:ko,"{""title_ko"":""canonical"",""image_url"":""canonical"",""latitude"":""canonical"",""longitude"":""canonical""}",canonical_only,,
busan-A-00078,busan-A-00078,api_only_existing,"복천박물관, 복천동고분군",attraction,unknown,,35.208885,129.09116,,,부산광역시 동래구 복천로 63,,,,https://www.visitbusan.net/uploadImgs/files/cntnts/20191230205640434_ttiel,,AttractionService:419:ko,"{""title_ko"":""canonical"",""image_url"":""canonical"",""latitude"":""canonical"",""longitude"":""canonical""}",canonical_only,,
busan-A-00079,busan-A-00079,api_only_existing,벡스코,attraction,unknown,,35.169247,129.13628,,,부산광역시 해운대구 APEC로 55,,,,https://www.visitbusan.net/uploadImgs/files/cntnts/20191230210019945_ttiel,,AttractionService:420:ko,"{""title_ko"":""canonical"",""image_url"":""canonical"",""latitude"":""canonical"",""longitude"":""canonical""}",canonical_only,,
busan-A-00080,busan-A-00080,api_only_existing,"영화의 전당(한,영,중간,중번,일)",attraction,unknown,,35.171055,129.12703,,,부산광역시 해운대구 수영강변대로 120,,,,https://www.visitbusan.net/uploadImgs/files/cntnts/20191230210358362_ttiel,,AttractionService:421:ko,"{""title_ko"":""canonical"",""image_url"":""canonical"",""latitude"":""canonical"",""longitude"":""canonical""}",canonical_only,,
busan-A-00081,busan-A-00081,api_only_existing,"장안사(한,영,중간,중번,일)",attraction,unknown,,35.37473,129.2329,,,부산광역시 기장군 장안읍 장안로 482,,,,https://www.visitbusan.net/uploadImgs/files/cntnts/20191231091948765_ttiel,,AttractionService:425:ko,"{""title_ko"":""canonical"",""image_url"":""canonical"",""latitude"":""canonical"",""longitude"":""canonical""}",canonical_only,,
busan-A-00082,busan-A-00082,api_only_existing,백양산,attraction,unknown,,35.182827,129.02196,,,부산광역시 부산진구 당감동,,,,https://www.visitbusan.net/uploadImgs/files/cntnts/20191231092729834_ttiel,,AttractionService:426:ko,"{""title_ko"":""canonical"",""image_url"":""canonical"",""latitude"":""canonical"",""longitude"":""canonical""}",canonical_only,,
busan-A-00083,busan-A-00083,api_only_existing,성지곡수원지,attraction,unknown,,35.187065,129.04105,,,부산광역시 부산진구 새싹로 295,,,,https://www.visitbusan.net/uploadImgs/files/cntnts/20191231100856743_ttiel,,AttractionService:430:ko,"{""title_ko"":""canonical"",""image_url"":""canonical"",""latitude"":""canonical"",""longitude"":""canonical""}",canonical_only,,
busan-A-00084,busan-A-00084,api_only_existing,"장산(한,영,중간,중번,일)",attraction,unknown,,35.193577,129.14497,,,부산광역시 해운대구 좌동 1390(대천공원),,,,https://www.visitbusan.net/uploadImgs/files/cntnts/20191231101745599_ttiel,,AttractionService:432:ko,"{""title_ko"":""canonical"",""image_url"":""canonical"",""latitude"":""canonical"",""longitude"":""canonical""}",canonical_only,,
busan-A-00085,busan-A-00085,api_only_existing,석불사,attraction,unknown,,35.221504,129.04861,,,부산광역시 북구 만덕고개길 143-79,,,,https://www.visitbusan.net/uploadImgs/files/cntnts/20191231102223413_ttiel,,AttractionService:433:ko,"{""title_ko"":""canonical"",""image_url"":""canonical"",""latitude"":""canonical"",""longitude"":""canonical""}",canonical_only,,
busan-A-00086,busan-A-00086,api_only_existing,"동래향교, 기장향교(한,영,중간,중번,일)",attraction,unknown,,35.207752,129.0841,,,부산광역시 동래구 동래로 103(동래향교) 부산광역시 기장군 기장읍 차성로417번길 35(기장향교),,,,https://www.visitbusan.net/uploadImgs/files/cntnts/20191231111302355_ttiel,,AttractionService:439:ko,"{""title_ko"":""canonical"",""image_url"":""canonical"",""latitude"":""canonical"",""longitude"":""canonical""}",canonical_only,,
busan-A-00087,busan-A-00087,api_only_existing,"가덕도 연대봉(한,영,중간,중번,일)",attraction,unknown,,35.026875,128.83395,,,부산광역시 강서구 천성동,,,,https://www.visitbusan.net/uploadImgs/files/cntnts/20191231180337567_ttiel,,AttractionService:444:ko,"{""title_ko"":""canonical"",""image_url"":""canonical"",""latitude"":""canonical"",""longitude"":""canonical""}",canonical_only,,
busan-A-00088,busan-A-00088,api_only_existing,승학산 억새평원,attraction,unknown,,35.116604,128.97968,,,부산광역시 사하구 당리동 산 45-1,,,,https://www.visitbusan.net/uploadImgs/files/cntnts/20191231181104098_ttiel,,AttractionService:445:ko,"{""title_ko"":""canonical"",""image_url"":""canonical"",""latitude"":""canonical"",""longitude"":""canonical""}",canonical_only,,
busan-A-00089,busan-A-00089,api_only_existing,"대룡마을(한,영,중간,중번,일)",attraction,unknown,,35.371174,129.26433,,,부산광역시 기장군 장안읍 대룡1길 17,,,,https://www.visitbusan.net/uploadImgs/files/cntnts/20191231184354051_ttiel,,AttractionService:450:ko,"{""title_ko"":""canonical"",""image_url"":""canonical"",""latitude"":""canonical"",""longitude"":""canonical""}",canonical_only,,
busan-A-00090,busan-A-00090,api_only_existing,대신공원,attraction,unknown,,35.121544,129.01619,,,부산광역시 서구 대신공원로 37-18,,,,https://www.visitbusan.net/uploadImgs/files/cntnts/20191231192024538_ttiel,,AttractionService:456:ko,"{""title_ko"":""canonical"",""image_url"":""canonical"",""latitude"":""canonical"",""longitude"":""canonical""}",canonical_only,,
busan-A-00091,busan-A-00091,api_only_existing,"화명수목원(한,영,중간,중번,일)",attraction,unknown,,35.25257,129.04205,,,부산광역시 북구 산성로 299,,,,https://www.visitbusan.net/uploadImgs/files/cntnts/20191231192531286_ttiel,,AttractionService:457:ko,"{""title_ko"":""canonical"",""image_url"":""canonical"",""latitude"":""canonical"",""longitude"":""canonical""}",canonical_only,,
busan-A-00092,busan-A-00092,api_only_existing,선암사,attraction,unknown,,35.176968,129.02771,,,부산광역시 부산진구 백양산로 138,,,,https://www.visitbusan.net/uploadImgs/files/cntnts/20191231193124555_ttiel,,AttractionService:458:ko,"{""title_ko"":""canonical"",""image_url"":""canonical"",""latitude"":""canonical"",""longitude"":""canonical""}",canonical_only,,
busan-A-00093,busan-A-00093,api_only_existing,운수사,attraction,unknown,,35.18432,129.01346,,,부산광역시 사상구 모라로219번길 173,,,,https://www.visitbusan.net/uploadImgs/files/cntnts/20191231193736138_ttiel,,AttractionService:459:ko,"{""title_ko"":""canonical"",""image_url"":""canonical"",""latitude"":""canonical"",""longitude"":""canonical""}",canonical_only,,
busan-A-00094,busan-A-00094,api_only_existing,"스포원파크(한,영,중간,중번,일)",attraction,unknown,,35.291504,129.10487,,,부산광역시 금정구 체육공원로399번길 324,,,,https://www.visitbusan.net/uploadImgs/files/cntnts/20251201114557109_ttiel,,AttractionService:463:ko,"{""title_ko"":""canonical"",""image_url"":""canonical"",""latitude"":""canonical"",""longitude"":""canonical""}",canonical_only,,
busan-A-00095,busan-A-00095,api_only_existing,"우암동 소막마을(한,영,중간,중번,일)",attraction,unknown,,35.1256,129.07018,,,부산광역시 남구 우암번영로 19,,,,https://www.visitbusan.net/uploadImgs/files/cntnts/20200101164518953_ttiel,,AttractionService:483:ko,"{""title_ko"":""canonical"",""image_url"":""canonical"",""latitude"":""canonical"",""longitude"":""canonical""}",canonical_only,,
busan-A-00096,busan-A-00096,api_only_existing,"충렬사(한,영,중간,중번,일)",attraction,unknown,,35.20119,129.09607,,,부산광역시 동래구 충렬대로 347,,,,https://www.visitbusan.net/uploadImgs/files/cntnts/20200102125306322_ttiel,,AttractionService:501:ko,"{""title_ko"":""canonical"",""image_url"":""canonical"",""latitude"":""canonical"",""longitude"":""canonical""}",canonical_only,,
busan-A-00097,busan-A-00097,api_only_existing,부산커피박물관,attraction,unknown,,35.15433,129.06453,,,부산광역시 부산진구 동천로 70 2층 207호,,,,https://www.visitbusan.net/uploadImgs/files/cntnts/20200102141456051_ttiel,,AttractionService:508:ko,"{""title_ko"":""canonical"",""image_url"":""canonical"",""latitude"":""canonical"",""longitude"":""canonical""}",canonical_only,,
busan-A-00098,busan-A-00098,api_only_existing,사상생활사박물관,attraction,unknown,,35.172,128.97871,,,부산광역시 사상구 낙동대로1258번길 36,,,,https://www.visitbusan.net/uploadImgs/files/cntnts/20200102142920888_ttiel,,AttractionService:511:ko,"{""title_ko"":""canonical"",""image_url"":""canonical"",""latitude"":""canonical"",""longitude"":""canonical""}",canonical_only,,
busan-A-00099,busan-A-00099,api_only_existing,사직야구장,attraction,unknown,,35.194107,129.06151,,,부산광역시 동래구 사직로 45,,,,https://www.visitbusan.net/uploadImgs/files/cntnts/20200110144727057_ttiel,,AttractionService:527:ko,"{""title_ko"":""canonical"",""image_url"":""canonical"",""latitude"":""canonical"",""longitude"":""canonical""}",canonical_only,,
busan-A-00100,busan-A-00100,existing_enriched,"부산타워(한,영,중간,중번,일)",attraction,unknown,attraction,35.10119,129.0323,,10:00 - 22:00(발권마감 21:30),부산광역시 중구 용두산길 37-30,051-601-1800,https://www.instagram.com/busantower_official,https://www.visitbusan.net/kr/index.do?menuCd=DOM_000000201001001000&uc_seq=550&lang_cd=ko,https://www.visitbusan.net/uploadImgs/files/cntnts/20200206095452989_ttiel,550,VisitBusanContent:attraction:550:ko|AttractionService:550:ko,"{""title_ko"":""canonical"",""hours"":""visitbusan"",""address"":""visitbusan"",""phone"":""visitbusan"",""external_official_url"":""visitbusan"",""image_url"":""canonical"",""latitude"":""canonical"",""longitude"":""canonical""}",geo_title_category,,
busan-A-00101,busan-A-00101,api_only_existing,"신평소공원(한, 영)",attraction,unknown,,35.29337,129.26012,,,부산광역시 기장군 일광면 신평리 11-1,,,,https://www.visitbusan.net/uploadImgs/files/cntnts/20200514115750295_ttiel,,AttractionService:757:ko,"{""title_ko"":""canonical"",""image_url"":""canonical"",""latitude"":""canonical"",""longitude"":""canonical""}",canonical_only,,
busan-A-00102,busan-A-00102,api_only_existing,기장 도예 관광 힐링촌 테마숲(한),attraction,unknown,,35.360134,129.23999,,,부산광역시 기장군 장안읍 기룡리 산126,,,,https://www.visitbusan.net/uploadImgs/files/cntnts/20200706141824447_ttiel,,AttractionService:804:ko,"{""title_ko"":""canonical"",""image_url"":""canonical"",""latitude"":""canonical"",""longitude"":""canonical""}",canonical_only,,
busan-A-00103,busan-A-00103,api_only_existing,부산신발이야기(한),attraction,unknown,,35.141808,129.0536,,,부산광역시 부산진구 백양대로 227(한국신발관) 부산광역시 동구 범곡북로 22-12(누나의길),,,,https://www.visitbusan.net/uploadImgs/files/cntnts/20200706134923010_ttiel,,AttractionService:813:ko,"{""title_ko"":""canonical"",""image_url"":""canonical"",""latitude"":""canonical"",""longitude"":""canonical""}",canonical_only,,
busan-A-00104,busan-A-00104,existing_enriched,"오션블루 가덕휴게소(한, 중간)",attraction,unknown,attraction,35.023594,128.80673,,오션블루 가덕휴게소 상시 홍보전시관 화~일 09:00 ~ 17:00 하절기(5월~10월) 10:00 ~ 17:00 동절기(11월~4월),부산광역시 강서구 거가대로 2571,홍보전시관 070-4050-6861 가덕휴게소 051-715-2200,https://www.gklink.com/index.php,https://www.visitbusan.net/kr/index.do?menuCd=DOM_000000201001001000&uc_seq=832&lang_cd=ko,https://www.visitbusan.net/uploadImgs/files/cntnts/20200717114524295_ttiel,832,VisitBusanContent:attraction:832:ko|AttractionService:832:ko,"{""title_ko"":""canonical"",""hours"":""visitbusan"",""address"":""visitbusan"",""phone"":""visitbusan"",""external_official_url"":""visitbusan"",""image_url"":""canonical"",""latitude"":""canonical"",""longitude"":""canonical""}",geo_title_category,,
busan-A-00105,busan-A-00105,manual_review,"송도용궁구름다리(한,영, 중간, 중번)",attraction,unknown,,35.06194,129.02191,,,부산광역시 서구 암남동 620-53,,,,https://www.visitbusan.net/uploadImgs/files/cntnts/20200717114921294_ttiel,,AttractionService:833:ko,"{""title_ko"":""canonical"",""image_url"":""canonical"",""latitude"":""canonical"",""longitude"":""canonical""}",canonical_only,canonical_manual_review,
busan-A-00106,busan-A-00106,api_only_existing,"정승빈작가-우암동 소막마을(한,영,중간,중번,일)",attraction,unknown,,35.126194,129.07597,,,부산광역시 남구 우암번영로 40-1,,,,https://www.visitbusan.net/uploadImgs/files/cntnts/20200722140028489_ttiel,,AttractionService:838:ko,"{""title_ko"":""canonical"",""image_url"":""canonical"",""latitude"":""canonical"",""longitude"":""canonical""}",canonical_only,,
busan-A-00107,busan-A-00107,existing_enriched,"부산치유의 숲(한, 영)",attraction,unknown,attraction,35.26948,129.12955,,매일,부산광역시 기장군 철마면 철마천로 101,051-976-2831,https://cafe.naver.com/busangreenforest,https://www.visitbusan.net/kr/index.do?menuCd=DOM_000000201001001000&uc_seq=848&lang_cd=ko,https://www.visitbusan.net/uploadImgs/files/cntnts/20200729150013892_ttiel,848,VisitBusanContent:attraction:848:ko|AttractionService:848:ko,"{""title_ko"":""canonical"",""hours"":""visitbusan"",""address"":""visitbusan"",""phone"":""visitbusan"",""external_official_url"":""visitbusan"",""image_url"":""canonical"",""latitude"":""canonical"",""longitude"":""canonical""}",geo_title_category,,
busan-A-00108,busan-A-00108,api_only_existing,구덕문화공원(한),attraction,unknown,,35.12617,129.00514,,,부산광역시 서구 꽃마을로163번길 73,,,,https://www.visitbusan.net/uploadImgs/files/cntnts/20200812172315522_ttiel,,AttractionService:859:ko,"{""title_ko"":""canonical"",""image_url"":""canonical"",""latitude"":""canonical"",""longitude"":""canonical""}",canonical_only,,
busan-A-00109,busan-A-00109,api_only_existing,"정승빈작가-아미동비석마을(한,영,중간,중번,일)",attraction,unknown,,35.09903,129.0126,,,부산광역시 서구 아미로49,,,,https://www.visitbusan.net/uploadImgs/files/cntnts/20200818133843206_ttiel,,AttractionService:876:ko,"{""title_ko"":""canonical"",""image_url"":""canonical"",""latitude"":""canonical"",""longitude"":""canonical""}",canonical_only,,
busan-A-00110,busan-A-00110,existing_enriched,"힐링하기 좋은 부산 어촌마을 (한,영,중간,중번,일)",attraction,unknown,attraction,35.012188,128.82697,,상시,대항어촌마을 부산광역시 강서구 가덕해안로1207번길 9-2 정거마을 부산광역시 강서구 눌차동,,,https://www.visitbusan.net/kr/index.do?menuCd=DOM_000000201001001000&uc_seq=1014&lang_cd=ko,https://www.visitbusan.net/uploadImgs/files/cntnts/20201030154341972_ttiel,1014,VisitBusanContent:attraction:1014:ko|AttractionService:1014:ko,"{""title_ko"":""canonical"",""hours"":""visitbusan"",""address"":""visitbusan"",""phone"":""none"",""external_official_url"":""none"",""image_url"":""canonical"",""latitude"":""canonical"",""longitude"":""canonical""}",geo_title_category,,
busan-A-00111,busan-A-00111,existing_enriched,"턴투워드부산(한,영,중간,중번,일)",attraction,unknown,attraction,35.127785,129.09766,,"매일, 유엔기념공원: 9:00 ~ 18:00 / 동절기 17:00 유엔평화기념관 10:00~18:00 (입장 17:30분까지)",유엔기념공원 부산광역시 남구 유엔평화로 93 유엔평화기념관 부산광역시 남구 홍곡로320번길 106,유엔기념공원 051-625-0625 유엔평화기념관 051-901-1400,https://www.unmck.or.kr/intro/,https://www.visitbusan.net/kr/index.do?menuCd=DOM_000000201001001000&uc_seq=1016&lang_cd=ko,https://www.visitbusan.net/uploadImgs/files/cntnts/20201106141515814_ttiel,1016,VisitBusanContent:attraction:1016:ko|AttractionService:1016:ko,"{""title_ko"":""canonical"",""hours"":""visitbusan"",""address"":""visitbusan"",""phone"":""visitbusan"",""external_official_url"":""visitbusan"",""image_url"":""canonical"",""latitude"":""canonical"",""longitude"":""canonical""}",geo_title_category,,
busan-A-00112,busan-A-00112,existing_enriched,"기장 달음산 자연휴양림(한,영,중간,중번,일)",attraction,unknown,attraction,35.30242,129.18535,,일일개장 09:00~18:00 숙박시설 입실 당일 15:00~18:00 / 퇴실 익일 09:00~11:00 운영요일: 수요일~월요일,부산광역시 기장군 일광면 화용길 299-106,051-722-3023,https://www.foresttrip.go.kr/indvz/main.do?hmpgId=0202,https://www.visitbusan.net/kr/index.do?menuCd=DOM_000000201001001000&uc_seq=1024&lang_cd=ko,https://www.visitbusan.net/uploadImgs/files/cntnts/20201201103753100_ttiel,1024,VisitBusanContent:attraction:1024:ko|AttractionService:1024:ko,"{""title_ko"":""canonical"",""hours"":""visitbusan"",""address"":""visitbusan"",""phone"":""visitbusan"",""external_official_url"":""visitbusan"",""image_url"":""canonical"",""latitude"":""canonical"",""longitude"":""canonical""}",geo_title_category,,
busan-A-00113,busan-A-00113,api_only_existing,"부산도서관(한,영,중간,중번,일)",attraction,unknown,,35.172737,128.98526,,,부산광역시 사상구 사상로310번길 33,,,,https://www.visitbusan.net/uploadImgs/files/cntnts/20201216170753435_ttiel,,AttractionService:1031:ko,"{""title_ko"":""canonical"",""image_url"":""canonical"",""latitude"":""canonical"",""longitude"":""canonical""}",canonical_only,,
busan-A-00114,busan-A-00114,api_only_existing,"해운대수목원 (한,영,중간,중번,일)",attraction,unknown,,35.22992,129.1327,,,부산광역시 해운대구 석대동 77,,,,https://www.visitbusan.net/uploadImgs/files/cntnts/20230202161355598_ttiel,,AttractionService:1142:ko,"{""title_ko"":""canonical"",""image_url"":""canonical"",""latitude"":""canonical"",""longitude"":""canonical""}",canonical_only,,
busan-A-00115,busan-A-00115,api_only_existing,"영도 봉산마을(한,영,중간,중번,일)",attraction,unknown,,35.09309,129.05125,,,영도구 오동꽃길 32 베리베리굿봉산센터,,,,https://www.visitbusan.net/uploadImgs/files/cntnts/20211116151308755_ttiel,,AttractionService:1179:ko,"{""title_ko"":""canonical"",""image_url"":""canonical"",""latitude"":""canonical"",""longitude"":""canonical""}",canonical_only,,
busan-A-00116,busan-A-00116,api_only_existing,"KT&G상상마당 부산(한,영,중간,중번,일)",attraction,unknown,,35.15431,129.05728,,,부산광역시 부산진구 서면로 39,,,,https://www.visitbusan.net/uploadImgs/files/cntnts/20211123183743098_ttiel,,AttractionService:1185:ko,"{""title_ko"":""canonical"",""image_url"":""canonical"",""latitude"":""canonical"",""longitude"":""canonical""}",canonical_only,,
busan-A-00117,busan-A-00117,existing_enriched,"광안종합시장 (한,영,중간,중번,일)",attraction,unknown,attraction,35.164215,129.11816,,가게별 상이,부산광역시 수영구 무학로49번길 71,051-752-8107,,https://www.visitbusan.net/kr/index.do?menuCd=DOM_000000201001001000&uc_seq=1305&lang_cd=ko,https://www.visitbusan.net/uploadImgs/files/cntnts/20220711140504179_ttiel,1305,VisitBusanContent:attraction:1305:ko|AttractionService:1305:ko,"{""title_ko"":""canonical"",""hours"":""visitbusan"",""address"":""visitbusan"",""phone"":""visitbusan"",""external_official_url"":""none"",""image_url"":""canonical"",""latitude"":""canonical"",""longitude"":""canonical""}",geo_title_category,,
busan-A-00118,busan-A-00118,existing_enriched,"롯데월드 어드벤처 부산 (한,영,중간,중번,일)",attraction,unknown,attraction,35.19602,129.2132,,10:00 ~ 20:00 (월~금) 10:00 ~ 21:00 (토~일) *자세한 운영시간은 홈페이지 참조,부산광역시 기장군 기장읍 동부산관광로 42,1661-2000,https://adventurebusan.lotteworld.com/kor/main/index.do,https://www.visitbusan.net/kr/index.do?menuCd=DOM_000000201001001000&uc_seq=1310&lang_cd=ko,https://www.visitbusan.net/uploadImgs/files/cntnts/20220901105446739_ttiel,1310,VisitBusanContent:attraction:1310:ko|AttractionService:1310:ko,"{""title_ko"":""canonical"",""hours"":""visitbusan"",""address"":""visitbusan"",""phone"":""visitbusan"",""external_official_url"":""visitbusan"",""image_url"":""canonical"",""latitude"":""canonical"",""longitude"":""canonical""}",geo_title_category,,
busan-A-00119,busan-A-00119,api_only_existing,"현대 모터스튜디오 부산(한,영,중간,중번,일)",attraction,unknown,,35.17674,129.11513,,,부산광역시 수영구 구락로123번길 20,,,,https://www.visitbusan.net/uploadImgs/files/cntnts/20220913120133333_ttiel,,AttractionService:1322:ko,"{""title_ko"":""canonical"",""image_url"":""canonical"",""latitude"":""canonical"",""longitude"":""canonical""}",canonical_only,,
busan-A-00120,busan-A-00120,existing_enriched,"힙함 가득한 전포공구길(한,영,중간,중번,일)",attraction,unknown,attraction,35.15876,129.06415,,가게별 상이,부산광역시 부산진구 서전로37번길 20,0507-1416-0087,,https://www.visitbusan.net/kr/index.do?menuCd=DOM_000000201001001000&uc_seq=1329&lang_cd=ko,https://www.visitbusan.net/uploadImgs/files/cntnts/20220921114402310_ttiel,1329,VisitBusanContent:attraction:1329:ko|AttractionService:1329:ko,"{""title_ko"":""canonical"",""hours"":""visitbusan"",""address"":""visitbusan"",""phone"":""visitbusan"",""external_official_url"":""none"",""image_url"":""canonical"",""latitude"":""canonical"",""longitude"":""canonical""}",geo_title_category,,
busan-A-00121,busan-A-00121,api_only_existing,"송도해상케이블카(한,영,중간,중번,일)",attraction,unknown,,35.076286,129.02365,,,부산광역시 서구 송도해변로 171,,,,https://www.visitbusan.net/uploadImgs/files/cntnts/20230508183214812_ttiel,,AttractionService:1422:ko,"{""title_ko"":""canonical"",""image_url"":""canonical"",""latitude"":""canonical"",""longitude"":""canonical""}",canonical_only,,
busan-A-00122,busan-A-00122,api_only_existing,"화명생태공원(한,영,중간,중번,일)",attraction,unknown,,35.22568,129.00327,,,화명장미원  부산광역시 북구 화명동 2280 화명생태공원  부산광역시 북구 화명동 1718-17,,,,https://www.visitbusan.net/uploadImgs/files/cntnts/20230519190619574_ttiel,,AttractionService:1434:ko,"{""title_ko"":""canonical"",""image_url"":""canonical"",""latitude"":""canonical"",""longitude"":""canonical""}",canonical_only,,
busan-A-00123,busan-A-00123,api_only_existing,"태종대자동차극장(한,영,중간,중번,일)",attraction,unknown,,35.062366,129.08342,,,CGV DRIVE IN 영도 : 부산광역시 영도구 동삼동 1009 태종대 : 부산광역시 영도구 전망로 24 흰여울문화마을 : 부산광역시영도구 영선동4가 605-3 절영해안산책로 : 부산광역시 영도구 해안산책길 52 깡깡이예술마을 : 부산광역시 영도구 대평북로 36,,,,https://www.visitbusan.net/uploadImgs/files/cntnts/20230525134753245_ttiel,,AttractionService:1440:ko,"{""title_ko"":""canonical"",""image_url"":""canonical"",""latitude"":""canonical"",""longitude"":""canonical""}",canonical_only,,
busan-A-00124,busan-A-00124,api_only_existing,"부산근현대역사관 별관(한,영,중간,중번,일)",attraction,unknown,,35.10258,129.03203,,,부산광역시 중구 대청로 104,,,,https://www.visitbusan.net/uploadImgs/files/cntnts/20230602095512309_ttiel,,AttractionService:1444:ko,"{""title_ko"":""canonical"",""image_url"":""canonical"",""latitude"":""canonical"",""longitude"":""canonical""}",canonical_only,,
busan-A-00125,busan-A-00125,api_only_existing,"우암동 도시숲(한,영,중간,중번,일)",attraction,unknown,,35.127033,129.07382,,,부산 남구 동항로106번가길 6,,,,https://www.visitbusan.net/uploadImgs/files/cntnts/20230531220739285_ttiel,,AttractionService:1449:ko,"{""title_ko"":""canonical"",""image_url"":""canonical"",""latitude"":""canonical"",""longitude"":""canonical""}",canonical_only,,
busan-A-00126,busan-A-00126,existing_enriched,"서면미술관(한,영,중간,중번,일)",attraction,unknown,attraction,35.153927,129.06252,,11:00 ~ 19:00 (발권 마감 18:00),"부산광역시 부산진구 동천로 58, 2층",051-805-0555,https://www.instagram.com/smma.official/,https://www.visitbusan.net/kr/index.do?menuCd=DOM_000000201001001000&uc_seq=1653&lang_cd=ko,https://www.visitbusan.net/uploadImgs/files/cntnts/20230623172451559_ttiel,1653,VisitBusanContent:attraction:1653:ko|AttractionService:1653:ko,"{""title_ko"":""canonical"",""hours"":""visitbusan"",""address"":""visitbusan"",""phone"":""visitbusan"",""external_official_url"":""visitbusan"",""image_url"":""canonical"",""latitude"":""canonical"",""longitude"":""canonical""}",geo_title_category,,
busan-A-00127,busan-A-00127,existing_enriched,"부산현대미술관(한,영,중간,중번,일)",attraction,unknown,attraction,35.109245,128.94263,,화~일 10:00~18:00(17:30 입장마감),부산광역시 사하구 낙동남로 1191,051-220-7400,https://www.busan.go.kr/moca,https://www.visitbusan.net/kr/index.do?menuCd=DOM_000000201001001000&uc_seq=1671&lang_cd=ko,https://www.visitbusan.net/uploadImgs/files/cntnts/20230707174450394_ttiel,1671,VisitBusanContent:attraction:1671:ko|AttractionService:1671:ko,"{""title_ko"":""canonical"",""hours"":""visitbusan"",""address"":""visitbusan"",""phone"":""visitbusan"",""external_official_url"":""visitbusan"",""image_url"":""canonical"",""latitude"":""canonical"",""longitude"":""canonical""}",geo_title_category,,
busan-A-00128,busan-A-00128,existing_enriched,"대저생태공원(한,영,중간,중번,일)",attraction,unknown,attraction,35.20406,128.98305,,매일 06:00-21:00,부산 강서구 대저1동 1-5,051-971-6011,https://www.busan.go.kr/nakdong/daejeopark01,https://www.visitbusan.net/kr/index.do?menuCd=DOM_000000201001001000&uc_seq=1673&lang_cd=ko,https://www.visitbusan.net/uploadImgs/files/cntnts/20230713153840580_ttiel,1673,VisitBusanContent:attraction:1673:ko|AttractionService:1673:ko,"{""title_ko"":""canonical"",""hours"":""visitbusan"",""address"":""visitbusan"",""phone"":""visitbusan"",""external_official_url"":""visitbusan"",""image_url"":""canonical"",""latitude"":""canonical"",""longitude"":""canonical""}",geo_title_category,,
busan-A-00129,busan-A-00129,existing_enriched,"맥도생태공원(한,영,중간,중번,일)",attraction,unknown,attraction,35.152267,128.95494,,상시,부산광역시 강서구 대저2동 1200-32,051-941-9728,https://www.busan.go.kr/nakdong/macdopark01,https://www.visitbusan.net/kr/index.do?menuCd=DOM_000000201001001000&uc_seq=1674&lang_cd=ko,https://www.visitbusan.net/uploadImgs/files/cntnts/20230713150615959_ttiel,1674,VisitBusanContent:attraction:1674:ko|AttractionService:1674:ko,"{""title_ko"":""canonical"",""hours"":""visitbusan"",""address"":""visitbusan"",""phone"":""visitbusan"",""external_official_url"":""visitbusan"",""image_url"":""canonical"",""latitude"":""canonical"",""longitude"":""canonical""}",geo_title_category,,
busan-A-00130,busan-A-00130,existing_enriched,"금빛노을브릿지(한,영,중간,중번,일)",attraction,unknown,attraction,35.21049,129.0017,,상시,부산광역시 북구 구포동,,,https://www.visitbusan.net/kr/index.do?menuCd=DOM_000000201001001000&uc_seq=1676&lang_cd=ko,https://www.visitbusan.net/uploadImgs/files/cntnts/20230720175854890_ttiel,1676,VisitBusanContent:attraction:1676:ko|AttractionService:1676:ko,"{""title_ko"":""canonical"",""hours"":""visitbusan"",""address"":""visitbusan"",""phone"":""none"",""external_official_url"":""none"",""image_url"":""canonical"",""latitude"":""canonical"",""longitude"":""canonical""}",geo_title_category,,
busan-A-00131,busan-A-00131,existing_enriched,"감전야생화단지(한,영,중간,중번,일)",attraction,unknown,attraction,35.142826,128.96594,,상시,부산광역시 사상구 감전동 873,,,https://www.visitbusan.net/kr/index.do?menuCd=DOM_000000201001001000&uc_seq=1677&lang_cd=ko,https://www.visitbusan.net/uploadImgs/files/cntnts/20230723172025932_ttiel,1677,VisitBusanContent:attraction:1677:ko|AttractionService:1677:ko,"{""title_ko"":""canonical"",""hours"":""visitbusan"",""address"":""visitbusan"",""phone"":""none"",""external_official_url"":""none"",""image_url"":""canonical"",""latitude"":""canonical"",""longitude"":""canonical""}",geo_title_category,,
busan-A-00132,busan-A-00132,existing_enriched,"국제커피박물관(한,영,중간,중번,일)",attraction,unknown,attraction,35.12724,129.04846,,화요일~일요일 11:00-18:00(입장마감 17:30),"부산광역시 동구 중앙대로 380(좌천동, 구.부산진역)",0507-1324-9760,https://www.instagram.com/international_coffee_museum/,https://www.visitbusan.net/kr/index.do?menuCd=DOM_000000201001001000&uc_seq=1696&lang_cd=ko,https://www.visitbusan.net/uploadImgs/files/cntnts/20230818114709553_ttiel,1696,VisitBusanContent:attraction:1696:ko|AttractionService:1696:ko,"{""title_ko"":""canonical"",""hours"":""visitbusan"",""address"":""visitbusan"",""phone"":""visitbusan"",""external_official_url"":""visitbusan"",""image_url"":""canonical"",""latitude"":""canonical"",""longitude"":""canonical""}",geo_title_category,,
busan-A-00133,busan-A-00133,existing_enriched,"박태준기념관(한,영,중간,중번,일)",attraction,unknown,attraction,35.316902,129.26108,,09:00~18:00 (입장 마감 17:30),부산광역시 기장군 장안읍 임랑해안길 1,051-709-3975,https://www.gijang.go.kr/ptjmemorial/main.do,https://www.visitbusan.net/kr/index.do?menuCd=DOM_000000201001001000&uc_seq=1709&lang_cd=ko,https://www.visitbusan.net/uploadImgs/files/cntnts/20230914182558311_ttiel,1709,VisitBusanContent:attraction:1709:ko|AttractionService:1709:ko,"{""title_ko"":""canonical"",""hours"":""visitbusan"",""address"":""visitbusan"",""phone"":""visitbusan"",""external_official_url"":""visitbusan"",""image_url"":""canonical"",""latitude"":""canonical"",""longitude"":""canonical""}",geo_title_category,,
busan-A-00134,busan-A-00134,existing_enriched,"다대포해변공원(한,영,중간,중번,일)",attraction,unknown,attraction,35.04586,128.96655,,상시,부산광역시 사하구 다대동 1674,051-220-5895,,https://www.visitbusan.net/kr/index.do?menuCd=DOM_000000201001001000&uc_seq=1718&lang_cd=ko,https://www.visitbusan.net/uploadImgs/files/cntnts/20230921171143286_ttiel,1718,VisitBusanContent:attraction:1718:ko|AttractionService:1718:ko,"{""title_ko"":""canonical"",""hours"":""visitbusan"",""address"":""visitbusan"",""phone"":""visitbusan"",""external_official_url"":""none"",""image_url"":""canonical"",""latitude"":""canonical"",""longitude"":""canonical""}",geo_title_category,,
busan-A-00135,busan-A-00135,existing_enriched,"유엔평화공원(한,영,중간,중번,일)",attraction,unknown,attraction,35.125774,129.10027,,상시,부산광역시 남구 대연동 707,051-607-6362,,https://www.visitbusan.net/kr/index.do?menuCd=DOM_000000201001001000&uc_seq=1731&lang_cd=ko,https://www.visitbusan.net/uploadImgs/files/cntnts/20231026100047318_ttiel,1731,VisitBusanContent:attraction:1731:ko|AttractionService:1731:ko,"{""title_ko"":""canonical"",""hours"":""visitbusan"",""address"":""visitbusan"",""phone"":""visitbusan"",""external_official_url"":""none"",""image_url"":""canonical"",""latitude"":""canonical"",""longitude"":""canonical""}",geo_title_category,,
busan-A-00136,busan-A-00136,api_only_existing,"정중앙공원(한,영,중간,중번,일)",attraction,unknown,,35.17038,129.03691,,,부산광역시 부산진구 부암동 541-9,,,,https://www.visitbusan.net/uploadImgs/files/cntnts/20240103105345242_ttiel,,AttractionService:1772:ko,"{""title_ko"":""canonical"",""image_url"":""canonical"",""latitude"":""canonical"",""longitude"":""canonical""}",canonical_only,,
busan-A-00137,busan-A-00137,existing_enriched,"복천사(한,영,중간,중번,일)",attraction,unknown,attraction,35.082603,129.05058,,,부산광역시 영도구 산정길 41,051-417-5551,https://bokc.co.kr/,https://www.visitbusan.net/kr/index.do?menuCd=DOM_000000201001001000&uc_seq=1776&lang_cd=ko,https://www.visitbusan.net/uploadImgs/files/cntnts/20240207102023070_ttiel,1776,VisitBusanContent:attraction:1776:ko|AttractionService:1776:ko,"{""title_ko"":""canonical"",""hours"":""none"",""address"":""visitbusan"",""phone"":""visitbusan"",""external_official_url"":""visitbusan"",""image_url"":""canonical"",""latitude"":""canonical"",""longitude"":""canonical""}",geo_title_category,,
busan-A-00138,busan-A-00138,existing_enriched,"인공철새서식지 명품둘레길(한,영,중간,중번,일)",attraction,unknown,attraction,35.082302,128.88304,,"11월-2월(07:00-17:00), 3월-10월(05:30-19:00)",부산광역시 강서구 신호동 203,051-970-4000,,https://www.visitbusan.net/kr/index.do?menuCd=DOM_000000201001001000&uc_seq=1777&lang_cd=ko,https://www.visitbusan.net/uploadImgs/files/cntnts/20240201225043211_ttiel,1777,VisitBusanContent:attraction:1777:ko|AttractionService:1777:ko,"{""title_ko"":""canonical"",""hours"":""visitbusan"",""address"":""visitbusan"",""phone"":""visitbusan"",""external_official_url"":""none"",""image_url"":""canonical"",""latitude"":""canonical"",""longitude"":""canonical""}",geo_title_category,,
busan-A-00139,busan-A-00139,api_only_existing,"목련꽃 가득 안은 성암사, 나만 알고 싶은 봄꽃 성지(한,영,중간,중번,일)",attraction,unknown,,35.145626,129.08005,,,부산광역시 남구 진남로 210번길 58-15,,,,https://www.visitbusan.net/uploadImgs/files/cntnts/20240321001620807_ttiel,,AttractionService:1796:ko,"{""title_ko"":""canonical"",""image_url"":""canonical"",""latitude"":""canonical"",""longitude"":""canonical""}",canonical_only,,
busan-A-00140,busan-A-00140,existing_enriched,"땅뫼산 황토숲길(한,영,중간,중번,일)",attraction,unknown,attraction,35.247078,129.12192,,,부산광역시 금정구 오륜동 352-3,051-519-4081,http://www.geumjeong.go.kr/tour/index.geumj,https://www.visitbusan.net/kr/index.do?menuCd=DOM_000000201001001000&uc_seq=1798&lang_cd=ko,https://www.visitbusan.net/uploadImgs/files/cntnts/20240401133553180_ttiel,1798,VisitBusanContent:attraction:1798:ko|AttractionService:1798:ko,"{""title_ko"":""canonical"",""hours"":""none"",""address"":""visitbusan"",""phone"":""visitbusan"",""external_official_url"":""visitbusan"",""image_url"":""canonical"",""latitude"":""canonical"",""longitude"":""canonical""}",geo_title_category,,
busan-A-00141,busan-A-00141,api_only_existing,"인도문화원(한,영,중간,중번,일)",attraction,unknown,,35.13031,129.09508,,,부산광역시 남구 유엔로 171-1 인디아더센터,,,,https://www.visitbusan.net/uploadImgs/files/cntnts/20240503180255101_ttiel,,AttractionService:1857:ko,"{""title_ko"":""canonical"",""image_url"":""canonical"",""latitude"":""canonical"",""longitude"":""canonical""}",canonical_only,,
busan-A-00142,busan-A-00142,api_only_existing,"KF아세안문화원(한,영,중간,중번,일)",attraction,unknown,,35.17519,129.18196,,,부산광역시 해운대구 좌동로 162,,,,https://www.visitbusan.net/uploadImgs/files/cntnts/20240528134839123_ttiel,,AttractionService:1862:ko,"{""title_ko"":""canonical"",""image_url"":""canonical"",""latitude"":""canonical"",""longitude"":""canonical""}",canonical_only,,
busan-A-00143,busan-A-00143,api_only_existing,"오초량(한,영,중간,중번,일)",attraction,unknown,,35.12196,129.04192,,,부산광역시 동구 고관로13번나길 22 1층,,,,https://www.visitbusan.net/uploadImgs/files/cntnts/20240528140620645_ttiel,,AttractionService:1866:ko,"{""title_ko"":""canonical"",""image_url"":""canonical"",""latitude"":""canonical"",""longitude"":""canonical""}",canonical_only,,
busan-A-00144,busan-A-00144,api_only_existing,"부산이슬람성원(한,영,중간,중번,일)",attraction,unknown,,35.259975,129.09227,,,부산광역시 금정구 금단로 113-13,,,,https://www.visitbusan.net/uploadImgs/files/cntnts/20240528135430979_ttiel,,AttractionService:1867:ko,"{""title_ko"":""canonical"",""image_url"":""canonical"",""latitude"":""canonical"",""longitude"":""canonical""}",canonical_only,,
busan-A-00145,busan-A-00145,api_only_existing,"친환경스카이웨이전망대(한,영,중간,중번,일)",attraction,unknown,,35.12086,129.03201,,,부산광역시 동구 망양로 533-33,,,,https://www.visitbusan.net/uploadImgs/files/cntnts/20240527143901347_ttiel,,AttractionService:1868:ko,"{""title_ko"":""canonical"",""image_url"":""canonical"",""latitude"":""canonical"",""longitude"":""canonical""}",canonical_only,,
busan-A-00146,busan-A-00146,api_only_existing,"부산근현대역사관 본관(한,영,중간,중번,일)",attraction,unknown,,35.102566,129.03214,,,부산광역시 중구 대청로 112 부산근현대역사관 본관 주차장 없음(공영주차장 이용),,,,https://www.visitbusan.net/uploadImgs/files/cntnts/20240605163754301_ttiel,,AttractionService:1881:ko,"{""title_ko"":""canonical"",""image_url"":""canonical"",""latitude"":""canonical"",""longitude"":""canonical""}",canonical_only,,
busan-A-00147,busan-A-00147,api_only_existing,"무사이(한, 영, 중간, 중번, 일)",attraction,unknown,,35.23837,129.01569,,,부산광역시 북구 산성로12번길 21 우신상가 지하1층,,,,https://www.visitbusan.net/uploadImgs/files/cntnts/20240626113937766_ttiel,,AttractionService:1890:ko,"{""title_ko"":""canonical"",""image_url"":""canonical"",""latitude"":""canonical"",""longitude"":""canonical""}",canonical_only,,
busan-A-00148,busan-A-00148,api_only_existing,"부산 트래블라운지 (한, 영, 중간, 중번, 일)",attraction,unknown,,35.113834,129.03818,,,"부산광역시 동구 대영로243번길 38 1, 2층",,,,https://www.visitbusan.net/uploadImgs/files/cntnts/20240703180805305_ttiel,,AttractionService:1900:ko,"{""title_ko"":""canonical"",""image_url"":""canonical"",""latitude"":""canonical"",""longitude"":""canonical""}",canonical_only,,
busan-A-00149,busan-A-00149,api_only_existing,"반여 초록공원 장산계곡(한,영,중간,중번,일)",attraction,unknown,,35.203255,129.13632,,,부산광역시 해운대구 반여동 산111-2,,,,https://www.visitbusan.net/uploadImgs/files/cntnts/20240809155702729_ttiel,,AttractionService:2013:ko,"{""title_ko"":""canonical"",""image_url"":""canonical"",""latitude"":""canonical"",""longitude"":""canonical""}",canonical_only,,
busan-A-00150,busan-A-00150,api_only_existing,"중앙공원(구 대신공원) 대신계곡(한,영,중간,중번,일)",attraction,unknown,,35.121838,129.01567,,,부산광역시 서구 보수대로320번길 59,,,,https://www.visitbusan.net/uploadImgs/files/cntnts/20240809161549849_ttiel,,AttractionService:2019:ko,"{""title_ko"":""canonical"",""image_url"":""canonical"",""latitude"":""canonical"",""longitude"":""canonical""}",canonical_only,,
busan-A-00151,busan-A-00151,api_only_existing,"구덕야영장 계곡(한,영,중간,중번,일)",attraction,unknown,,35.12556,129.00969,,,부산광역시 서구 꽃마을로156번길 109 구덕청소년수련관,,,,https://www.visitbusan.net/uploadImgs/files/cntnts/20240809163409331_ttiel,,AttractionService:2024:ko,"{""title_ko"":""canonical"",""image_url"":""canonical"",""latitude"":""canonical"",""longitude"":""canonical""}",canonical_only,,
busan-A-00152,busan-A-00152,api_only_existing,"범어사 용성계곡(한,영,중간,중번,일)",attraction,unknown,,35.283524,129.06847,,,부산광역시 금정구 범어사로 267,,,,https://www.visitbusan.net/uploadImgs/files/cntnts/20240809171647495_ttiel,,AttractionService:2034:ko,"{""title_ko"":""canonical"",""image_url"":""canonical"",""latitude"":""canonical"",""longitude"":""canonical""}",canonical_only,,
busan-A-00153,busan-A-00153,api_only_existing,"용소웰빙공원(한,영,중간,중번,일)",attraction,unknown,,35.24623,129.20415,,,부산광역시 기장군 기장읍 서부리 산7-2,,,,https://www.visitbusan.net/uploadImgs/files/cntnts/20240821134135301_ttiel,,AttractionService:2065:ko,"{""title_ko"":""canonical"",""image_url"":""canonical"",""latitude"":""canonical"",""longitude"":""canonical""}",canonical_only,,
busan-A-00154,busan-A-00154,api_only_existing,"국립부산국악원 국악체험관(한,영,중간,중번,일)",attraction,unknown,,35.171013,129.05438,,,부산광역시 부산진구 국악로 2 국립부산국악원,,,,https://www.visitbusan.net/uploadImgs/files/cntnts/20240826154634475_ttiel,,AttractionService:2067:ko,"{""title_ko"":""canonical"",""image_url"":""canonical"",""latitude"":""canonical"",""longitude"":""canonical""}",canonical_only,,
busan-A-00155,busan-A-00155,api_only_existing,"부산수학문화관(한,영,중간,중번,일)",attraction,unknown,,35.15666,129.0513,,,부산광역시 부산진구 가야대로 734 부산수학문화관,,,,https://www.visitbusan.net/uploadImgs/files/cntnts/20240904145348246_ttiel,,AttractionService:2077:ko,"{""title_ko"":""canonical"",""image_url"":""canonical"",""latitude"":""canonical"",""longitude"":""canonical""}",canonical_only,,
busan-A-00156,busan-A-00156,api_only_existing,"마하사(한,영,중간,중번,일)",attraction,unknown,,35.163532,129.08733,,,부산광역시 연제구 봉수로 138,,,,https://www.visitbusan.net/uploadImgs/files/cntnts/20240911101725976_ttiel,,AttractionService:2078:ko,"{""title_ko"":""canonical"",""image_url"":""canonical"",""latitude"":""canonical"",""longitude"":""canonical""}",canonical_only,,
busan-A-00157,busan-A-00157,api_only_existing,"이바구길 사진관(한,영,중간,중번,일)",attraction,unknown,,35.11625,129.03874,,,부산광역시 동구 초량로13번길 66 1층 이바구길사진관,,,,https://www.visitbusan.net/uploadImgs/files/cntnts/20240910171845448_ttiel,,AttractionService:2079:ko,"{""title_ko"":""canonical"",""image_url"":""canonical"",""latitude"":""canonical"",""longitude"":""canonical""}",canonical_only,,
busan-A-00158,busan-A-00158,api_only_existing,"북항 친수공원(한,영,중간,중번,일)",attraction,unknown,,35.11442,129.04637,,,부산광역시 동구 이순신대로 164,,,,https://www.visitbusan.net/uploadImgs/files/cntnts/20240911140423764_ttiel,,AttractionService:2081:ko,"{""title_ko"":""canonical"",""image_url"":""canonical"",""latitude"":""canonical"",""longitude"":""canonical""}",canonical_only,,
busan-A-00159,busan-A-00159,api_only_existing,"북항재개발 홍보관(한,영,중간,중번,일)",attraction,unknown,,35.11751,129.04921,,,부산광역시 동구 초량동 45-66,,,,https://www.visitbusan.net/uploadImgs/files/cntnts/20240911173034092_ttiel,,AttractionService:2082:ko,"{""title_ko"":""canonical"",""image_url"":""canonical"",""latitude"":""canonical"",""longitude"":""canonical""}",canonical_only,,
busan-A-00160,busan-A-00160,api_only_existing,"문화예술플랫폼(한,영,중간,중번,일)",attraction,unknown,,35.206764,128.99797,,,부산광역시 북구 구포만세길 113,,,,https://www.visitbusan.net/uploadImgs/files/cntnts/20240911180908467_ttiel,,AttractionService:2085:ko,"{""title_ko"":""canonical"",""image_url"":""canonical"",""latitude"":""canonical"",""longitude"":""canonical""}",canonical_only,,
busan-A-00161,busan-A-00161,api_only_existing,"북두칠성도서관(한,영,중간,중번,일)",attraction,unknown,,35.116432,129.04588,,,부산광역시 동구 충장대로 160 협성마리나G7 B동 1층 북두칠성도서관,,,,https://www.visitbusan.net/uploadImgs/files/cntnts/20240913175719812_ttiel,,AttractionService:2086:ko,"{""title_ko"":""canonical"",""image_url"":""canonical"",""latitude"":""canonical"",""longitude"":""canonical""}",canonical_only,,
busan-A-00162,busan-A-00162,api_only_existing,"송정 구덕포길(한,영,중간,중번,일)",attraction,unknown,,35.169155,129.19722,,,부산광역시 해운대구 송정동,,,,https://www.visitbusan.net/uploadImgs/files/cntnts/20240920110953518_ttiel,,AttractionService:2095:ko,"{""title_ko"":""canonical"",""image_url"":""canonical"",""latitude"":""canonical"",""longitude"":""canonical""}",canonical_only,,
busan-A-00163,busan-A-00163,api_only_existing,"망양로 산복도로 전시관(한,영,중간,중번,일)",attraction,unknown,,35.117672,129.0332,,,부산광역시 동구 망양로 488 3층,,,,https://www.visitbusan.net/uploadImgs/files/cntnts/20240923115623200_ttiel,,AttractionService:2102:ko,"{""title_ko"":""canonical"",""image_url"":""canonical"",""latitude"":""canonical"",""longitude"":""canonical""}",canonical_only,,
busan-A-00164,busan-A-00164,api_only_existing,"닥밭골 벽화마을(한,영,중간,중번,일)",attraction,unknown,,35.114338,129.02371,,,부산광역시 서구 동대신동2가 87-218,,,,https://www.visitbusan.net/uploadImgs/files/cntnts/20240923142217173_ttiel,,AttractionService:2104:ko,"{""title_ko"":""canonical"",""image_url"":""canonical"",""latitude"":""canonical"",""longitude"":""canonical""}",canonical_only,,
busan-A-00165,busan-A-00165,api_only_existing,"대청스카이전망대(한,영,중간,중번,일)",attraction,unknown,,35.107513,129.02963,,,부산광역시 중구 망양로 333,,,,https://www.visitbusan.net/uploadImgs/files/cntnts/20240923144618796_ttiel,,AttractionService:2105:ko,"{""title_ko"":""canonical"",""image_url"":""canonical"",""latitude"":""canonical"",""longitude"":""canonical""}",canonical_only,,
busan-A-00166,busan-A-00166,api_only_existing,"색채마을(한,영,중간,중번,일)",attraction,unknown,,35.106995,129.02943,,,부산광역시 중구 망양로327-1,,,,https://www.visitbusan.net/uploadImgs/files/cntnts/20240923150247468_ttiel,,AttractionService:2106:ko,"{""title_ko"":""canonical"",""image_url"":""canonical"",""latitude"":""canonical"",""longitude"":""canonical""}",canonical_only,,
busan-A-00167,busan-A-00167,api_only_existing,"뮤직컴플렉스 서울 부산점(한,영,중간,중번,일)",attraction,unknown,,35.193672,129.21411,,,부산광역시 기장군 기장읍 동부산관광로 34 미식일상 1F 뮤직컴플렉스서울 부산점,,,,https://www.visitbusan.net/uploadImgs/files/cntnts/20240926181328093_ttiel,,AttractionService:2119:ko,"{""title_ko"":""canonical"",""image_url"":""canonical"",""latitude"":""canonical"",""longitude"":""canonical""}",canonical_only,,
busan-A-00168,busan-A-00168,api_only_existing,"누리마루 APEC하우스 (한,영,중간,중번,일)",attraction,unknown,,35.152336,129.15132,,,부산광역시 해운대구 동백로 116 누리마루APEC하우스,,,,https://www.visitbusan.net/uploadImgs/files/cntnts/20241002101127462_ttiel,,AttractionService:2121:ko,"{""title_ko"":""canonical"",""image_url"":""canonical"",""latitude"":""canonical"",""longitude"":""canonical""}",canonical_only,,
busan-A-00169,busan-A-00169,api_only_existing,"용호 별빛공원(한,영,중간,중번,일)",attraction,unknown,,35.1328,129.12,,,"부산광역시 남구 분포로 66-40, 용호 별빛공원 (용호동)",,,,https://www.visitbusan.net/uploadImgs/files/cntnts/20241017115549245_ttiel,,AttractionService:2133:ko,"{""title_ko"":""canonical"",""image_url"":""canonical"",""latitude"":""canonical"",""longitude"":""canonical""}",canonical_only,,
busan-A-00170,busan-A-00170,api_only_existing,"부산 워케이션 거점센터(한,영,중간,중번,일)",attraction,unknown,,35.116238,129.04184,,,부산광역시 동구 중앙대로214번길 7-8 24층,,,,https://www.visitbusan.net/uploadImgs/files/cntnts/20241024114149701_ttiel,,AttractionService:2138:ko,"{""title_ko"":""canonical"",""image_url"":""canonical"",""latitude"":""canonical"",""longitude"":""canonical""}",canonical_only,,
busan-A-00171,busan-A-00171,api_only_existing,"더휴일X데스커 워케이션 센터(한,영,중간,중번,일)",attraction,unknown,,35.095074,129.0427,,,부산광역시 영도구 대교로46번길 46 6층,,,,https://www.visitbusan.net/uploadImgs/files/cntnts/20241024131843096_ttiel,,AttractionService:2139:ko,"{""title_ko"":""canonical"",""image_url"":""canonical"",""latitude"":""canonical"",""longitude"":""canonical""}",canonical_only,,
busan-A-00172,busan-A-00172,api_only_existing,"씨씨윗북 북스토어(한,영,중간,중번,일)",attraction,unknown,,35.079052,129.04463,,,부산 영도구 흰여울길 99 씨씨윗북 북스토어,,,,https://www.visitbusan.net/uploadImgs/files/cntnts/20241024113331184_ttiel,,AttractionService:2140:ko,"{""title_ko"":""canonical"",""image_url"":""canonical"",""latitude"":""canonical"",""longitude"":""canonical""}",canonical_only,,
busan-A-00173,busan-A-00173,existing_enriched,"패스파인더 남포점(한,영,중간,중번,일)",attraction,unknown,attraction,35.100525,129.03075,,매일 00:00-24:00 연중무휴,부산광역시 중구 광복중앙로 13 4층,0507-1448-9080,https://www.pathfinder.camp/,https://www.visitbusan.net/kr/index.do?menuCd=DOM_000000201001001000&uc_seq=2143&lang_cd=ko,https://www.visitbusan.net/uploadImgs/files/cntnts/20241024144324691_ttiel,2143,VisitBusanContent:attraction:2143:ko|AttractionService:2143:ko,"{""title_ko"":""canonical"",""hours"":""visitbusan"",""address"":""visitbusan"",""phone"":""visitbusan"",""external_official_url"":""visitbusan"",""image_url"":""canonical"",""latitude"":""canonical"",""longitude"":""canonical""}",geo_title_category,,
busan-A-00174,busan-A-00174,api_only_existing,"도모헌(한,영,중간,중번,일)",attraction,unknown,,35.147057,129.10724,,,부산광역시 수영구 황령산로7번길 60,,,,https://www.visitbusan.net/uploadImgs/files/cntnts/20241025105526827_ttiel,,AttractionService:2145:ko,"{""title_ko"":""canonical"",""image_url"":""canonical"",""latitude"":""canonical"",""longitude"":""canonical""}",canonical_only,,
busan-A-00175,busan-A-00175,api_only_existing,"동삼동패총전시관(한,영,중간,중번,일)",attraction,unknown,,35.07119,129.07968,,,부산광역시 영도구 태종로 729,,,,https://www.visitbusan.net/uploadImgs/files/cntnts/20241029182913498_ttiel,,AttractionService:2153:ko,"{""title_ko"":""canonical"",""image_url"":""canonical"",""latitude"":""canonical"",""longitude"":""canonical""}",canonical_only,,
busan-A-00176,busan-A-00176,api_only_existing,"부산시민공원 역사문화관(한,영,중간,중번,일)",attraction,unknown,,35.168602,129.05751,,,부산광역시 부산진구 시민공원로 73,,,,https://www.visitbusan.net/uploadImgs/files/cntnts/20241031151344958_ttiel,,AttractionService:2155:ko,"{""title_ko"":""canonical"",""image_url"":""canonical"",""latitude"":""canonical"",""longitude"":""canonical""}",canonical_only,,
busan-A-00177,busan-A-00177,api_only_existing,"다대포 바다누리길(한,영,중간,중번,일)",attraction,unknown,,35.046967,128.96936,,,부산광역시 사하구 다대동 468-6 (다대포 바다누리길 광장),,,,https://www.visitbusan.net/uploadImgs/files/cntnts/20241031180127634_ttiel,,AttractionService:2157:ko,"{""title_ko"":""canonical"",""image_url"":""canonical"",""latitude"":""canonical"",""longitude"":""canonical""}",canonical_only,,
busan-A-00178,busan-A-00178,api_only_existing,"광안리 골방(한,영,중간,중번,일)",attraction,unknown,,35.157566,129.12578,,,부산광역시 수영구 민락본동로19번길 59 지하1층,,,,https://www.visitbusan.net/uploadImgs/files/cntnts/20241108142157400_ttiel,,AttractionService:2166:ko,"{""title_ko"":""canonical"",""image_url"":""canonical"",""latitude"":""canonical"",""longitude"":""canonical""}",canonical_only,,
busan-A-00179,busan-A-00179,api_only_existing,"오시리아 해안 산책로(한,영,중간,중번,일)",attraction,unknown,,35.198395,129.22993,,,부산광역시 기장군 기장읍 시랑리 62-22,,,,https://www.visitbusan.net/uploadImgs/files/cntnts/20241107133504063_ttiel,,AttractionService:2172:ko,"{""title_ko"":""canonical"",""image_url"":""canonical"",""latitude"":""canonical"",""longitude"":""canonical""}",canonical_only,,
busan-A-00180,busan-A-00180,api_only_existing,"홍티아트센터(한,영,중간,중번,일)",attraction,unknown,,35.05365,128.95828,,,부산 사하구 다산로 106번길 6 홍티아트센터,,,,https://www.visitbusan.net/uploadImgs/files/cntnts/20241107142452622_ttiel,,AttractionService:2173:ko,"{""title_ko"":""canonical"",""image_url"":""canonical"",""latitude"":""canonical"",""longitude"":""canonical""}",canonical_only,,
busan-A-00181,busan-A-00181,api_only_existing,"일광 광산마을(한,영,중간,중번,일)",attraction,unknown,,35.30874,129.22404,,,부산광역시 기장군 일광읍 원리 663-7,,,,https://www.visitbusan.net/uploadImgs/files/cntnts/20241112125514341_ttiel,,AttractionService:2186:ko,"{""title_ko"":""canonical"",""image_url"":""canonical"",""latitude"":""canonical"",""longitude"":""canonical""}",canonical_only,,
busan-A-00182,busan-A-00182,api_only_existing,"부산항 제 1부두(한,영,중간,중번,일)",attraction,unknown,,35.10498,129.04028,,,부산광역시 중구 중앙동 4가 15-33,,,,https://www.visitbusan.net/uploadImgs/files/cntnts/20241112141808956_ttiel,,AttractionService:2187:ko,"{""title_ko"":""canonical"",""image_url"":""canonical"",""latitude"":""canonical"",""longitude"":""canonical""}",canonical_only,,
busan-A-00183,busan-A-00183,api_only_existing,"유엔평화기념관(한,영,중간,중번,일)",attraction,unknown,,35.127697,129.09593,,,부산광역시 남구 홍곡로320번길 106,,,,https://www.visitbusan.net/uploadImgs/files/cntnts/20241112150316938_ttiel,,AttractionService:2188:ko,"{""title_ko"":""canonical"",""image_url"":""canonical"",""latitude"":""canonical"",""longitude"":""canonical""}",canonical_only,,
busan-A-00184,busan-A-00184,api_only_existing,"명지 철새 탐조대(한,영,중간,중번,일)",attraction,unknown,,35.084156,128.91174,,,부산 강서구 명지오션시티1로 284,,,,https://www.visitbusan.net/uploadImgs/files/cntnts/20241113145816999_ttiel,,AttractionService:2189:ko,"{""title_ko"":""canonical"",""image_url"":""canonical"",""latitude"":""canonical"",""longitude"":""canonical""}",canonical_only,,
busan-A-00185,busan-A-00185,api_only_existing,"포디움다이브엠(한,영,중간,중번,일)",attraction,unknown,,35.148014,129.11356,,,부산광역시 수영구 광남로 96,,,,https://www.visitbusan.net/uploadImgs/files/cntnts/20241126144851008_ttiel,,AttractionService:2191:ko,"{""title_ko"":""canonical"",""image_url"":""canonical"",""latitude"":""canonical"",""longitude"":""canonical""}",canonical_only,,
busan-A-00186,busan-A-00186,api_only_existing,"갤러리 수정(한,영,중간,중번,일)",attraction,unknown,,35.12573,129.04266,,,부산광역시 동구 수정공원남로 28 (수정아파트 4동 A408호),,,,https://www.visitbusan.net/uploadImgs/files/cntnts/20241202143950023_ttiel,,AttractionService:2200:ko,"{""title_ko"":""canonical"",""image_url"":""canonical"",""latitude"":""canonical"",""longitude"":""canonical""}",canonical_only,,
busan-A-00187,busan-A-00187,api_only_existing,"이바구캠프(한,영,중간,중번,일)",attraction,unknown,,35.119175,129.0283,,,부산광역시 동구 망양로525번길 22,,,,https://www.visitbusan.net/uploadImgs/files/cntnts/20241202150020813_ttiel,,AttractionService:2202:ko,"{""title_ko"":""canonical"",""image_url"":""canonical"",""latitude"":""canonical"",""longitude"":""canonical""}",canonical_only,,
busan-A-00188,busan-A-00188,api_only_existing,"디오티미술관(한,영,중간,중번,일)",attraction,unknown,,35.228886,129.07677,,,부산광역시 금정구 금샘로 35,,,,https://www.visitbusan.net/uploadImgs/files/cntnts/20241206140233984_ttiel,,AttractionService:2204:ko,"{""title_ko"":""canonical"",""image_url"":""canonical"",""latitude"":""canonical"",""longitude"":""canonical""}",canonical_only,,
busan-A-00189,busan-A-00189,api_only_existing,"오륜대 순교자 성지(한,영,중간,중번,일)",attraction,unknown,,35.24589,129.10143,,,부산광역시 금정구 오륜대로 106-1,,,,https://www.visitbusan.net/uploadImgs/files/cntnts/20241206151830093_ttiel,,AttractionService:2206:ko,"{""title_ko"":""canonical"",""image_url"":""canonical"",""latitude"":""canonical"",""longitude"":""canonical""}",canonical_only,,
busan-A-00190,busan-A-00190,api_only_existing,"갤러리 플레이리스트(한,영,중간,중번,일)",attraction,unknown,,35.102535,129.03517,,,부산광역시 중구 대청로138번길 3 1층(용두산공원 공영주차장 주차),,,,https://www.visitbusan.net/uploadImgs/files/cntnts/20241206181644634_ttiel,,AttractionService:2210:ko,"{""title_ko"":""canonical"",""image_url"":""canonical"",""latitude"":""canonical"",""longitude"":""canonical""}",canonical_only,,
busan-A-00191,busan-A-00191,existing_enriched,"영도해돋이전망대 (한,영,중간,중번,일)",attraction,unknown,attraction,35.08908,129.05594,,,부산광역시 영도구 해돋이3길 410-1,051-419-4000(영도구청),,https://www.visitbusan.net/kr/index.do?menuCd=DOM_000000201001001000&uc_seq=2218&lang_cd=ko,https://www.visitbusan.net/uploadImgs/files/cntnts/20241219102705213_ttiel,2218,VisitBusanContent:attraction:2218:ko|AttractionService:2218:ko,"{""title_ko"":""canonical"",""hours"":""none"",""address"":""visitbusan"",""phone"":""visitbusan"",""external_official_url"":""none"",""image_url"":""canonical"",""latitude"":""canonical"",""longitude"":""canonical""}",geo_title_category,,
busan-A-00192,busan-A-00192,api_only_existing,"해광사(한,영,중간,중번,일)",attraction,unknown,,35.205593,129.22546,,,부산광역시 기장군 기장읍 기장해안로 340,,,,https://www.visitbusan.net/uploadImgs/files/cntnts/20241224115942076_ttiel,,AttractionService:2220:ko,"{""title_ko"":""canonical"",""image_url"":""canonical"",""latitude"":""canonical"",""longitude"":""canonical""}",canonical_only,,
busan-A-00193,busan-A-00193,api_only_existing,"륜 빌리지 (한,영,중간,중번,일)",attraction,unknown,,35.24763,129.11644,,,부산광역시 금정구 오륜대로 262 륜 빌리지 Ryun Village,,,,https://www.visitbusan.net/uploadImgs/files/cntnts/20250102170659652_ttiel,,AttractionService:2229:ko,"{""title_ko"":""canonical"",""image_url"":""canonical"",""latitude"":""canonical"",""longitude"":""canonical""}",canonical_only,,
busan-A-00194,busan-A-00194,existing_enriched,"내원정사(한,영,중간,중번,일)",attraction,unknown,attraction,35.126575,129.01202,,매일 08:00-21:00,부산광역시 서구 엄광산로40번길 80,051-242-0691,https://naewon.kr/,https://www.visitbusan.net/kr/index.do?menuCd=DOM_000000201001001000&uc_seq=2237&lang_cd=ko,https://www.visitbusan.net/uploadImgs/files/cntnts/20250110143214904_ttiel,2237,VisitBusanContent:attraction:2237:ko|AttractionService:2237:ko,"{""title_ko"":""canonical"",""hours"":""visitbusan"",""address"":""visitbusan"",""phone"":""visitbusan"",""external_official_url"":""visitbusan"",""image_url"":""canonical"",""latitude"":""canonical"",""longitude"":""canonical""}",geo_title_category,,
busan-A-00195,busan-A-00195,existing_enriched,"홍법사(한,영,중간,중번,일)",attraction,unknown,attraction,35.30383,129.11041,,,부산광역시 금정구 두구로33번길 202 홍법사,051-508-0345,http://www.hbs.or.kr/,https://www.visitbusan.net/kr/index.do?menuCd=DOM_000000201001001000&uc_seq=2239&lang_cd=ko,https://www.visitbusan.net/uploadImgs/files/cntnts/20250110145605040_ttiel,2239,VisitBusanContent:attraction:2239:ko|AttractionService:2239:ko,"{""title_ko"":""canonical"",""hours"":""none"",""address"":""visitbusan"",""phone"":""visitbusan"",""external_official_url"":""visitbusan"",""image_url"":""canonical"",""latitude"":""canonical"",""longitude"":""canonical""}",geo_title_category,,
busan-A-00196,busan-A-00196,existing_enriched,"부산어린이대공원 치유의숲(한,영,중간,중번,일)",attraction,unknown,attraction,35.185402,129.04234,,,부산광역시 부산진구 새싹로 295,051-860-7848,https://www.bisco.or.kr/bschildpark/,https://www.visitbusan.net/kr/index.do?menuCd=DOM_000000201001001000&uc_seq=2240&lang_cd=ko,https://www.visitbusan.net/uploadImgs/files/cntnts/20250110150900359_ttiel,2240,VisitBusanContent:attraction:2240:ko|AttractionService:2240:ko,"{""title_ko"":""canonical"",""hours"":""none"",""address"":""visitbusan"",""phone"":""visitbusan"",""external_official_url"":""visitbusan"",""image_url"":""canonical"",""latitude"":""canonical"",""longitude"":""canonical""}",geo_title_category,,
busan-A-00197,busan-A-00197,api_only_existing,"동백섬(한,영,중간,중번,일)",attraction,unknown,,35.15397,129.1523,,,부산광역시 해운대구 우동 710-1,,,,https://www.visitbusan.net/uploadImgs/files/cntnts/20250207152914813_ttiel,,AttractionService:2274:ko,"{""title_ko"":""canonical"",""image_url"":""canonical"",""latitude"":""canonical"",""longitude"":""canonical""}",canonical_only,,
busan-A-00198,busan-A-00198,api_only_existing,"중사도(한,영,중간,중번,일)",attraction,unknown,,35.20947,128.91457,,,부산광역시 강서구 식만동,,,,https://www.visitbusan.net/uploadImgs/files/cntnts/20250207155656641_ttiel,,AttractionService:2275:ko,"{""title_ko"":""canonical"",""image_url"":""canonical"",""latitude"":""canonical"",""longitude"":""canonical""}",canonical_only,,
busan-A-00199,busan-A-00199,api_only_existing,"모퉁이극장(한,영,중간,중번,일)",attraction,unknown,,35.1006,129.0309,,,부산광역시 중구 광복중앙로 13 3층,,,,https://www.visitbusan.net/uploadImgs/files/cntnts/20250212112901695_ttiel,,AttractionService:2284:ko,"{""title_ko"":""canonical"",""image_url"":""canonical"",""latitude"":""canonical"",""longitude"":""canonical""}",canonical_only,,
busan-A-00200,busan-A-00200,api_only_existing,"영주맨션(한,영,중간,중번,일)",attraction,unknown,,35.113503,129.03278,,,"부산광역시 중구 영초길 51 9-다, 지하5호",,,,https://www.visitbusan.net/uploadImgs/files/cntnts/20250214183306081_ttiel,,AttractionService:2288:ko,"{""title_ko"":""canonical"",""image_url"":""canonical"",""latitude"":""canonical"",""longitude"":""canonical""}",canonical_only,,
busan-A-00201,busan-A-00201,api_only_existing,"황령산레포츠공원(한,영,중간,중번,일)",attraction,unknown,,35.15709,129.07631,,,부산광역시 부산진구 진남로328번길 99,,,,https://www.visitbusan.net/uploadImgs/files/cntnts/20250306115823313_ttiel,,AttractionService:2299:ko,"{""title_ko"":""canonical"",""image_url"":""canonical"",""latitude"":""canonical"",""longitude"":""canonical""}",canonical_only,,
busan-A-00202,busan-A-00202,api_only_existing,"범어사 성보박물관(한,영,중간,중번,일)",attraction,unknown,,35.278435,129.0744,,,부산광역시 금정구 범어사로 296,,,,https://www.visitbusan.net/uploadImgs/files/cntnts/20250317141712864_ttiel,,AttractionService:2314:ko,"{""title_ko"":""canonical"",""image_url"":""canonical"",""latitude"":""canonical"",""longitude"":""canonical""}",canonical_only,,
busan-A-00203,busan-A-00203,api_only_existing,대룡마을,attraction,unknown,,35.370792,129.2628,,,부산광역시 기장군 장안읍 대룡1길 17,,,,https://www.visitbusan.net/uploadImgs/files/cntnts/20250620121122146_ttiel,,AttractionService:2408:ko,"{""title_ko"":""canonical"",""image_url"":""canonical"",""latitude"":""canonical"",""longitude"":""canonical""}",canonical_only,,
busan-A-00204,busan-A-00204,existing_enriched,"남포, 광복지하도상가",attraction,unknown,attraction,35.097282,129.02728,,매일 10:00 ~ 20:00,남포지하도상가: 부산광역시 중구 구덕로 지하44 (남포동5가) 광복지하도상가: 부산광역시 중구 중앙대로 29번길 8 (중앙동1가),,,https://www.visitbusan.net/kr/index.do?menuCd=DOM_000000201001001000&uc_seq=2491&lang_cd=ko,https://www.visitbusan.net/uploadImgs/files/cntnts/20250728122343276_ttiel,2491,VisitBusanContent:attraction:2491:ko|AttractionService:2491:ko,"{""title_ko"":""canonical"",""hours"":""visitbusan"",""address"":""visitbusan"",""phone"":""none"",""external_official_url"":""none"",""image_url"":""canonical"",""latitude"":""canonical"",""longitude"":""canonical""}",geo_title_category,,
busan-A-00205,busan-A-00205,api_only_existing,황령산봉수전망대,attraction,unknown,,35.157204,129.08163,,,부산광역시 부산진구 전포동 산50-18,,,,https://www.visitbusan.net/uploadImgs/files/cntnts/20250826175032196_ttiel,,AttractionService:2551:ko,"{""title_ko"":""canonical"",""image_url"":""canonical"",""latitude"":""canonical"",""longitude"":""canonical""}",canonical_only,,
busan-A-00206,busan-A-00206,api_only_existing,1934 기차 동래역,attraction,unknown,,35.19779,129.09004,,,부산 동래구 낙민로 28 구 동래역사,,,,https://www.visitbusan.net/uploadImgs/files/cntnts/20250926164016872_ttiel,,AttractionService:2566:ko,"{""title_ko"":""canonical"",""image_url"":""canonical"",""latitude"":""canonical"",""longitude"":""canonical""}",canonical_only,,
busan-A-00207,busan-A-00207,api_only_existing,대항 어항동 방파제 등대,attraction,unknown,,35.011753,128.82515,,,부산 강서구 대항동 393-3,,,,https://www.visitbusan.net/uploadImgs/files/cntnts/20251020162135473_ttiel,,AttractionService:2587:ko,"{""title_ko"":""canonical"",""image_url"":""canonical"",""latitude"":""canonical"",""longitude"":""canonical""}",canonical_only,,
busan-A-00208,busan-A-00208,api_only_existing,충무동 해안시장,attraction,unknown,,35.095985,129.0255,,,부산 서구 해안새벽시장길 7,,,,https://www.visitbusan.net/uploadImgs/files/cntnts/20251020171326961_ttiel,,AttractionService:2588:ko,"{""title_ko"":""canonical"",""image_url"":""canonical"",""latitude"":""canonical"",""longitude"":""canonical""}",canonical_only,,
busan-A-00209,busan-A-00209,api_only_existing,초량 이바구길,attraction,unknown,,35.11814,129.03362,,,부산 동구 초량동 865-48,,,,https://www.visitbusan.net/uploadImgs/files/cntnts/20251024154312500_ttiel,,AttractionService:2594:ko,"{""title_ko"":""canonical"",""image_url"":""canonical"",""latitude"":""canonical"",""longitude"":""canonical""}",canonical_only,,
busan-A-00210,busan-A-00210,api_only_existing,고려제강기념관,attraction,unknown,,35.177723,129.11348,,,부산 수영구 구락로141번길 63,,,,https://www.visitbusan.net/uploadImgs/files/cntnts/20251029154155656_ttiel,,AttractionService:2598:ko,"{""title_ko"":""canonical"",""image_url"":""canonical"",""latitude"":""canonical"",""longitude"":""canonical""}",canonical_only,,
busan-A-00211,busan-A-00211,api_only_existing,회동수원지,attraction,unknown,,35.245823,129.11913,,,부산 금정구 오륜동 352-3,,,,https://www.visitbusan.net/uploadImgs/files/cntnts/20251121173217035_ttiel,,AttractionService:2612:ko,"{""title_ko"":""canonical"",""image_url"":""canonical"",""latitude"":""canonical"",""longitude"":""canonical""}",canonical_only,,
busan-A-00212,busan-A-00212,api_only_existing,리틀 프린스 하우스,attraction,unknown,,35.09775,129.00851,,,부산광역시 사하구 감내1로 200(구 감내어울터),,,,https://www.visitbusan.net/uploadImgs/files/cntnts/20260311171309981_ttiel,,AttractionService:2678:ko,"{""title_ko"":""canonical"",""image_url"":""canonical"",""latitude"":""canonical"",""longitude"":""canonical""}",canonical_only,,
busan-A-00213,busan-A-00213,existing_enriched,지그재그아트센터,attraction,unknown,attraction,35.161175,129.16803,,10:00~18:00(월~토),부산 해운대구 달맞이길 30 엘시티 상가 포디움동 1001호,,https://www.zigzagartcenter.com/,https://www.visitbusan.net/kr/index.do?menuCd=DOM_000000201001001000&uc_seq=2753&lang_cd=ko,https://www.visitbusan.net/uploadImgs/files/cntnts/20260609143205137_ttiel,2753,VisitBusanContent:attraction:2753:ko|AttractionService:2753:ko,"{""title_ko"":""canonical"",""hours"":""visitbusan"",""address"":""visitbusan"",""phone"":""none"",""external_official_url"":""visitbusan"",""image_url"":""canonical"",""latitude"":""canonical"",""longitude"":""canonical""}",geo_title_category,,
busan-E-00001,busan-E-00001,api_only_existing,"부산바다축제(한,영, 중간,중번,일)",event,unknown,,35.151604,129.11713,,,,,,,https://www.visitbusan.net/uploadImgs/files/cntnts/20191213191711585_ttiel,,FestivalService:71:ko,"{""title_ko"":""canonical"",""image_url"":""canonical"",""latitude"":""canonical"",""longitude"":""canonical""}",canonical_only,,
busan-E-00002,busan-E-00002,api_only_existing,"수국축제(한,영,중간,중번,일)",event,unknown,,35.05602,129.08812,,,부산광역시 영도구 전망로 119,,,,https://www.visitbusan.net/uploadImgs/files/cntnts/20191222160520749_ttiel,,FestivalService:253:ko,"{""title_ko"":""canonical"",""image_url"":""canonical"",""latitude"":""canonical"",""longitude"":""canonical""}",canonical_only,,
busan-E-00003,busan-E-00003,api_only_existing,"센텀맥주축제(한,영,중간,중번,일)",event,unknown,,35.170998,129.12697,,,부산광역시 해운대구 수영강변대로 120,,,,https://www.visitbusan.net/uploadImgs/files/cntnts/20191227114742493_ttiel,,FestivalService:329:ko,"{""title_ko"":""canonical"",""image_url"":""canonical"",""latitude"":""canonical"",""longitude"":""canonical""}",canonical_only,,
busan-E-00004,busan-E-00004,api_only_existing,"금정산성축제(한,영,중간,중번,일)",event,unknown,,35.23809,129.08815,,,부산광역시 금정구 산성로 501-2,,,,https://www.visitbusan.net/uploadImgs/files/cntnts/20191227115551778_ttiel,,FestivalService:330:ko,"{""title_ko"":""canonical"",""image_url"":""canonical"",""latitude"":""canonical"",""longitude"":""canonical""}",canonical_only,,
busan-E-00005,busan-E-00005,api_only_existing,"낙동강구포나루축제(한,영,중간,중번,일)",event,unknown,,35.22585,129.00346,,,부산광역시 북구 화명생태공원 연꽃단지 일원,,,,https://www.visitbusan.net/uploadImgs/files/cntnts/20191227120157384_ttiel,,FestivalService:331:ko,"{""title_ko"":""canonical"",""image_url"":""canonical"",""latitude"":""canonical"",""longitude"":""canonical""}",canonical_only,,
busan-E-00006,busan-E-00006,api_only_existing,"부산불꽃축제(한, 영, 중간, 중번, 일)",event,unknown,,35.152725,129.11848,,,부산광역시 수영구 광안해변로 219,,,,https://www.visitbusan.net/uploadImgs/files/cntnts/20241022165920388_ttiel,,FestivalService:395:ko,"{""title_ko"":""canonical"",""image_url"":""canonical"",""latitude"":""canonical"",""longitude"":""canonical""}",canonical_only,,
busan-E-00007,busan-E-00007,api_only_existing,"삼광사 연등축제(한,영,중간,중번,일)",event,unknown,,35.175694,129.04338,,,부산광역시 부산진구 초읍천로43번길 77,,,,https://www.visitbusan.net/uploadImgs/files/cntnts/20230503134701548_ttiel,,FestivalService:403:ko,"{""title_ko"":""canonical"",""image_url"":""canonical"",""latitude"":""canonical"",""longitude"":""canonical""}",canonical_only,,
busan-E-00008,busan-E-00008,api_only_existing,"해운대모래축제(한,영,중간,중번,일)",event,unknown,,35.158497,129.15985,,,"해운대해수욕장, 해운대광장(구남로) 일원",,,,https://www.visitbusan.net/uploadImgs/files/cntnts/20250512112542346_ttiel,,FestivalService:405:ko,"{""title_ko"":""canonical"",""image_url"":""canonical"",""latitude"":""canonical"",""longitude"":""canonical""}",canonical_only,,
busan-E-00009,busan-E-00009,api_only_existing,"부산항축제(한,영,중간,중번,일)",event,unknown,,35.114414,129.0464,,,부산 동구 이순신대로 164,,,,https://www.visitbusan.net/uploadImgs/files/cntnts/20260422164844354_ttiel,,FestivalService:406:ko,"{""title_ko"":""canonical"",""image_url"":""canonical"",""latitude"":""canonical"",""longitude"":""canonical""}",canonical_only,,
busan-E-00010,busan-E-00010,api_only_existing,"동래읍성 역사축제(한, 영, 중간, 중번, 일)",event,unknown,,35.21127,129.09091,,,부산광역시 동래구 문화로 80,,,,https://www.visitbusan.net/uploadImgs/files/cntnts/20191230193142955_ttiel,,FestivalService:407:ko,"{""title_ko"":""canonical"",""image_url"":""canonical"",""latitude"":""canonical"",""longitude"":""canonical""}",canonical_only,,
busan-E-00011,busan-E-00011,api_only_existing,"부산자갈치축제(한,영,중간,중번,일)",event,unknown,,35.096703,129.03058,,,부산광역시 중구 자갈치해안로 52,,,,https://www.visitbusan.net/uploadImgs/files/cntnts/20191230200521249_ttiel,,FestivalService:411:ko,"{""title_ko"":""canonical"",""image_url"":""canonical"",""latitude"":""canonical"",""longitude"":""canonical""}",canonical_only,,
busan-E-00012,busan-E-00012,api_only_existing,"차이나타운특구 문화축제(한,영,중간,중번,일)",event,unknown,,35.11431,129.03809,,,부산광역시 동구 대영로243번길 43,,,,https://www.visitbusan.net/uploadImgs/files/cntnts/20191230202600804_ttiel,,FestivalService:414:ko,"{""title_ko"":""canonical"",""image_url"":""canonical"",""latitude"":""canonical"",""longitude"":""canonical""}",canonical_only,,
busan-E-00013,busan-E-00013,api_only_existing,"부산바다미술제(한,영,중간,중번,일)",event,unknown,,35.258884,129.23155,,,부산 사하구 다대동,,,,https://www.visitbusan.net/uploadImgs/files/cntnts/20231024143140221_ttiel,,FestivalService:427:ko,"{""title_ko"":""canonical"",""image_url"":""canonical"",""latitude"":""canonical"",""longitude"":""canonical""}",canonical_only,,
busan-E-00014,busan-E-00014,api_only_existing,"해운대 빛축제(한,영,중간,중번,일)",event,unknown,,35.15849,129.15987,,,부산광역시 해운대구 해운대해변로 264,,,,https://www.visitbusan.net/uploadImgs/files/cntnts/20221227165437336_ttiel,,FestivalService:440:ko,"{""title_ko"":""canonical"",""image_url"":""canonical"",""latitude"":""canonical"",""longitude"":""canonical""}",canonical_only,,
busan-E-00015,busan-E-00015,api_only_existing,"기장미역다시마축제(한, 영, 중간, 중번, 일)",event,unknown,,35.271782,129.2447,,,부산광역시 기장군 일광읍 이동항 일원,,,,https://www.visitbusan.net/uploadImgs/files/cntnts/20191231114635471_ttiel,,FestivalService:441:ko,"{""title_ko"":""canonical"",""image_url"":""canonical"",""latitude"":""canonical"",""longitude"":""canonical""}",canonical_only,,
busan-E-00016,busan-E-00016,api_only_existing,"광안리어방축제(한,영,중간,중번,일)",event,unknown,,35.153156,129.11893,,,부산광역시 수영구 광안해변로 219,,,,https://www.visitbusan.net/uploadImgs/files/cntnts/20191231174925322_ttiel,,FestivalService:442:ko,"{""title_ko"":""canonical"",""image_url"":""canonical"",""latitude"":""canonical"",""longitude"":""canonical""}",canonical_only,,
busan-E-00017,busan-E-00017,api_only_existing,"기장멸치축제(한, 영, 중간, 중번, 일)",event,unknown,,35.223377,129.23056,,,부산광역시 기장군 기장읍 대변항 일원,,,,https://www.visitbusan.net/uploadImgs/files/cntnts/20191231175726016_ttiel,,FestivalService:443:ko,"{""title_ko"":""canonical"",""image_url"":""canonical"",""latitude"":""canonical"",""longitude"":""canonical""}",canonical_only,,
busan-E-00018,busan-E-00018,api_only_existing,"광복로 겨울빛 트리축제(한,영,중간,중번,일)",event,unknown,,35.09927,129.03131,,,부산광역시 중구 광복로 58-2,,,,https://www.visitbusan.net/uploadImgs/files/cntnts/20221227174139947_ttiel,,FestivalService:449:ko,"{""title_ko"":""canonical"",""image_url"":""canonical"",""latitude"":""canonical"",""longitude"":""canonical""}",canonical_only,,
busan-E-00019,busan-E-00019,api_only_existing,"부산국제록페스티벌(한,영, 중간,중번,일)",event,unknown,,35.168747,128.97238,,,부산광역시 사상구 삼락동 29-46 삼락생태공원,,,,https://www.visitbusan.net/uploadImgs/files/cntnts/20230913151940386_ttiel,,FestivalService:470:ko,"{""title_ko"":""canonical"",""image_url"":""canonical"",""latitude"":""canonical"",""longitude"":""canonical""}",canonical_only,,
busan-E-00020,busan-E-00020,api_only_existing,"대저토마토축제(한, 영, 중간, 중번, 일)",event,unknown,,35.20922,128.97174,,,부산광역시 강서구 체육공원로 43(강서체육공원),,,,https://www.visitbusan.net/uploadImgs/files/cntnts/20200102115239175_ttiel,,FestivalService:497:ko,"{""title_ko"":""canonical"",""image_url"":""canonical"",""latitude"":""canonical"",""longitude"":""canonical""}",canonical_only,,
busan-E-00021,busan-E-00021,api_only_existing,"낙동강 정원 벚꽃축제(한,영,중간,중번,일)",event,unknown,,35.16549,128.97609,,,"낙동제방 벚꽃길 일원, 르네시떼 야외무대",,,,https://www.visitbusan.net/uploadImgs/files/cntnts/20200102120811862_ttiel,,FestivalService:499:ko,"{""title_ko"":""canonical"",""image_url"":""canonical"",""latitude"":""canonical"",""longitude"":""canonical""}",canonical_only,,
busan-E-00022,busan-E-00022,api_only_existing,"사상강변축제(한,영,중간,중번,일)",event,unknown,,35.168854,128.97198,,,부산광역시 사상구 삼락생태공원,,,,https://www.visitbusan.net/uploadImgs/files/cntnts/20200102124932671_ttiel,,FestivalService:500:ko,"{""title_ko"":""canonical"",""image_url"":""canonical"",""latitude"":""canonical"",""longitude"":""canonical""}",canonical_only,,
busan-E-00023,busan-E-00023,api_only_existing,"해운대달맞이온천축제(한,영,중간,중번,일)",event,unknown,,35.1588,129.16136,,,부산광역시 해운대구 해운대해변로 264,,,,https://www.visitbusan.net/uploadImgs/files/cntnts/20200102125938297_ttiel,,FestivalService:502:ko,"{""title_ko"":""canonical"",""image_url"":""canonical"",""latitude"":""canonical"",""longitude"":""canonical""}",canonical_only,,
busan-E-00024,busan-E-00024,api_only_existing,"해운대북극곰축제(한,영,중간,중번,일)",event,unknown,,35.158566,129.1598,,,부산광역시 해운대구 해운대해변로 264,,,,https://www.visitbusan.net/uploadImgs/files/cntnts/20200102133625014_ttiel,,FestivalService:503:ko,"{""title_ko"":""canonical"",""image_url"":""canonical"",""latitude"":""canonical"",""longitude"":""canonical""}",canonical_only,,
busan-E-00025,busan-E-00025,api_only_existing,"조선통신사축제(한,영,중간,중번,일)",event,unknown,,35.10072,129.03273,,,"북항친수공원, APEC하우스, 용호별빛공원, 범어사",,,,https://www.visitbusan.net/uploadImgs/files/cntnts/20200110115509318_ttiel,,FestivalService:523:ko,"{""title_ko"":""canonical"",""image_url"":""canonical"",""latitude"":""canonical"",""longitude"":""canonical""}",canonical_only,,
busan-E-00026,busan-E-00026,api_only_existing,"부산국제영화제(한, 영, 중간, 중번, 일)",event,unknown,,35.171078,129.12697,,,부산광역시 해운대구 수영강변대로 120(영화의 전당),,,,https://www.visitbusan.net/uploadImgs/files/cntnts/20200110131702589_ttiel,,FestivalService:524:ko,"{""title_ko"":""canonical"",""image_url"":""canonical"",""latitude"":""canonical"",""longitude"":""canonical""}",canonical_only,,
busan-E-00027,busan-E-00027,api_only_existing,"감천문화마을골목축제(한,영,중간,중번,일)",event,unknown,,35.095776,129.00931,,,부산광역시 사하구 감내2로 203,,,,https://www.visitbusan.net/uploadImgs/files/cntnts/20200110160422867_ttiel,,FestivalService:531:ko,"{""title_ko"":""canonical"",""image_url"":""canonical"",""latitude"":""canonical"",""longitude"":""canonical""}",canonical_only,,
busan-E-00028,busan-E-00028,manual_review,"부산푸드필름페스타(한, 영)",event,unknown,,35.17107,129.12698,,,부산광역시 해운대구 수영강변대로 120,,,,https://www.visitbusan.net/uploadImgs/files/cntnts/20200701210502556_ttiel,,FestivalService:807:ko,"{""title_ko"":""canonical"",""image_url"":""canonical"",""latitude"":""canonical"",""longitude"":""canonical""}",canonical_only,canonical_manual_review,
