canonical_id,canonical_key,status,category,source_service,lang_count,member_count,languages,kto_merges,title_ko,address,district,latitude,longitude,image_url,venue,event_period_raw
busan-A-00001,AttractionService:255:ko,busan_confirmed,attraction,AttractionService,5,5,ko|en|ja|zhs|zht,,흰여울문화마을,부산광역시 영도구 흰여울길,영도구,35.07885,129.04402,https://www.visitbusan.net/uploadImgs/files/cntnts/20191222164810529_ttiel,,
busan-A-00002,AttractionService:256:ko,busan_confirmed,attraction,AttractionService,5,5,ko|en|ja|zhs|zht,,깡깡이 예술마을,부산광역시 영도구 대평북로 36 깡깡이 안내센터,영도구,35.092648,129.03255,https://www.visitbusan.net/uploadImgs/files/cntnts/20191222171209005_ttiel,,
busan-A-00003,AttractionService:257:ko,busan_confirmed,attraction,AttractionService,5,5,ko|en|ja|zhs|zht,,"국립해양박물관(한,영,중간,중번,일)",부산광역시 영도구 해양로301번길 45,영도구,35.078728,129.08018,https://www.visitbusan.net/uploadImgs/files/cntnts/20191222175627506_ttiel,,
busan-A-00004,AttractionService:258:ko,busan_confirmed,attraction,AttractionService,5,5,ko|en|ja|zhs|zht,,태종대,부산광역시 영도구 전망로 24,영도구,35.052643,129.0878,https://www.visitbusan.net/uploadImgs/files/cntnts/20191222180829962_ttiel,,
busan-A-00005,AttractionService:259:ko,busan_confirmed,attraction,AttractionService,5,5,ko|en|ja|zhs|zht,,죽성성당,부산광역시 기장군 기장읍 죽성리 134-7,기장군,35.241013,129.24864,https://www.visitbusan.net/uploadImgs/files/cntnts/20191222181829937_ttiel,,
busan-A-00006,AttractionService:260:ko,busan_confirmed,attraction,AttractionService,5,5,ko|en|ja|zhs|zht,,"아홉산 숲 (한,영,중간,중번,일)",부산광역시 기장군 철마면 웅천리 520-10,기장군,35.287334,129.17046,https://www.visitbusan.net/uploadImgs/files/cntnts/20191222185645736_ttiel,,
busan-A-00007,AttractionService:261:ko,busan_confirmed,attraction,AttractionService,5,5,ko|en|ja|zhs|zht,,"해동용궁사 (한,영,중간,중번,일)",부산광역시 기장군 기장읍 용궁길 86,기장군,35.188583,129.22346,https://www.visitbusan.net/uploadImgs/files/cntnts/20191222190823385_ttiel,,
busan-A-00008,AttractionService:262:ko,busan_confirmed,attraction,AttractionService,5,5,ko|en|ja|zhs|zht,,임랑해수욕장,부산광역시 기장군 장안읍 임랑리,기장군,35.31905,129.26451,https://www.visitbusan.net/uploadImgs/files/cntnts/20191224093809621_ttiel,,
busan-A-00009,AttractionService:264:ko,busan_confirmed,attraction,AttractionService,5,5,ko|en|ja|zhs|zht,,"문화공감 수정, 초량1941(한,영,중간,중번,일)",문화공감 수정 : 부산광역시 동구 홍곡로 75 초량1941 : 부산광역시 동구 망양로 533-5,동구,35.125793,129.04265,https://www.visitbusan.net/uploadImgs/files/cntnts/20191224171115847_ttiel,,
busan-A-00010,AttractionService:265:ko,busan_confirmed,attraction,AttractionService,5,5,ko|en|ja|zhs|zht,,"부산바다의 과거와 현재, 일광해수욕장",부산광역시 기장군 일광읍 삼성리 143-10,기장군,35.259953,129.23373,https://www.visitbusan.net/uploadImgs/files/cntnts/20191225143353231_ttiel,,
busan-A-00011,AttractionService:266:ko,busan_confirmed,attraction,AttractionService,5,5,ko|en|ja|zhs|zht,,"구 백제병원 (한,영,중간,중번,일)",부산광역시 동구 중앙대로209번길 16,동구,35.116383,129.03917,https://www.visitbusan.net/uploadImgs/files/cntnts/20191225145805369_ttiel,,
busan-A-00012,AttractionService:267:ko,busan_confirmed,attraction,AttractionService,5,5,ko|en|ja|zhs|zht,,백산기념관,부산광역시 중구 백산길 11,중구,35.101955,129.03456,https://www.visitbusan.net/uploadImgs/files/cntnts/20191225150331107_ttiel,,
busan-A-00013,AttractionService:268:ko,busan_confirmed,attraction,AttractionService,5,5,ko|en|ja|zhs|zht,,"한성1918 부산생활문화센터(한,영,중간,중번,일)",부산광역시 중구 백산길 13,중구,35.10178,129.03444,https://www.visitbusan.net/uploadImgs/files/cntnts/20191225150936833_ttiel,,
busan-A-00014,AttractionService:269:ko,busan_confirmed,attraction,AttractionService,5,5,ko|en|ja|zhs|zht,,"조선통신사역사관(한,영,중간,중번,일)",부산광역시 동구 자성로99,동구,35.135754,129.06203,https://www.visitbusan.net/uploadImgs/files/cntnts/20191225151358656_ttiel,,
busan-A-00015,AttractionService:270:ko,busan_confirmed,attraction,AttractionService,5,5,ko|en|ja|zhs|zht,,부산해양자연사박물관,부산광역시 동래구 우장춘로 175,동래구,35.22178,129.07591,https://www.visitbusan.net/uploadImgs/files/cntnts/20191225151830289_ttiel,,
busan-A-00016,AttractionService:272:ko,busan_confirmed,attraction,AttractionService,5,5,ko|en|ja|zhs|zht,,보수동책방골목,부산광역시 중구 보수동1가 151-1,중구,35.103367,129.02663,https://www.visitbusan.net/uploadImgs/files/cntnts/20191225154726785_ttiel,,
busan-A-00017,AttractionService:273:ko,busan_confirmed,attraction,AttractionService,5,5,ko|en|ja|zhs|zht,,"임시수도기념관(한,영,중간,중번,일)",부산광역시 서구 임시수도기념로 45,서구,35.103527,129.01735,https://www.visitbusan.net/uploadImgs/files/cntnts/20250929174908393_ttiel,,
busan-A-00018,AttractionService:274:ko,busan_confirmed,attraction,AttractionService,5,5,ko|en|ja|zhs|zht,,"동아대석당박물관(한,영,중간,중번,일)",부산광역시 서구 구덕로 225,서구,35.10497,129.01926,https://www.visitbusan.net/uploadImgs/files/cntnts/20191225160959194_ttiel,,
busan-A-00019,AttractionService:275:ko,busan_confirmed,attraction,AttractionService,5,5,ko|en|ja|zhs|zht,,"국립일제강제동원역사관(한,영,중간,중번,일)",부산광역시 남구 홍곡로320번길 100,남구,35.124355,129.09192,https://www.visitbusan.net/uploadImgs/files/cntnts/20191225162953256_ttiel,,
busan-A-00020,AttractionService:276:ko,busan_confirmed,attraction,AttractionService,5,5,ko|en|ja|zhs|zht,,부산박물관,부산광역시 남구 유엔평화로 63,남구,35.12957,129.09451,https://www.visitbusan.net/uploadImgs/files/cntnts/20191225163741459_ttiel,,
busan-A-00021,AttractionService:277:ko,busan_confirmed,attraction,AttractionService,5,5,ko|en|ja|zhs|zht,,"유엔기념공원, 유엔평화기념관(한,영,중간,중번,일)",유엔기념공원 : 부산광역시 남구 유엔평화로 93  유엔평화기념관 : 부산광역시 남구 홍곡로320번길 106,남구,35.1277,129.09775,https://www.visitbusan.net/uploadImgs/files/cntnts/20191225164342360_ttiel,,
busan-A-00022,AttractionService:278:ko,busan_confirmed,attraction,AttractionService,5,5,ko|en|ja|zhs|zht,,오륙도,부산광역시 남구 오륙도로 137,남구,35.102177,129.12334,https://www.visitbusan.net/uploadImgs/files/cntnts/20191225164921130_ttiel,,
busan-A-00023,AttractionService:279:ko,busan_confirmed,attraction,AttractionService,5,5,ko|en|ja|zhs|zht,,신선대,부산광역시 남구 신선대산복로 174번길 78,남구,35.102272,129.10277,https://www.visitbusan.net/uploadImgs/files/cntnts/20191225165635368_ttiel,,
busan-A-00024,AttractionService:280:ko,busan_confirmed,attraction,AttractionService,5,5,ko|en|ja|zhs|zht,,"송정해수욕장, 죽도공원",부산광역시 해운대구 송정해변로 62,해운대구,35.1786,129.19966,https://www.visitbusan.net/uploadImgs/files/cntnts/20230630185239164_ttiel,,
busan-A-00025,AttractionService:281:ko,busan_confirmed,attraction,AttractionService,5,5,ko|en|ja|zhs|zht,,"아난티 코브 이터널저니(한,영,중간,중번,일)",부산광역시 기장군 기장읍 기장해안로 268-32,기장군,35.197235,129.22784,https://www.visitbusan.net/uploadImgs/files/cntnts/20191225170855698_ttiel,,
busan-A-00026,AttractionService:285:ko,busan_confirmed,attraction,AttractionService,5,5,ko|en|ja|zhs|zht,,민락수변공원,부산광역시 수영구 민락동 110-19,수영구,35.15487,129.13399,https://www.visitbusan.net/uploadImgs/files/cntnts/20191225174730014_ttiel,,
busan-A-00027,AttractionService:286:ko,busan_confirmed,attraction,AttractionService,5,5,ko|en|ja|zhs|zht,,"송도해수욕장(한,영,중간,중번,일)",부산광역시 서구 송도해변로 100,서구,35.07595,129.01694,https://www.visitbusan.net/uploadImgs/files/cntnts/20191225175459392_ttiel,,
busan-A-00028,AttractionService:287:ko,busan_confirmed,attraction,AttractionService,5,5,ko|en|ja|zhs|zht,,아미산전망대,부산광역시 사하구 다대낙조2길 77,사하구,35.052727,128.96075,https://www.visitbusan.net/uploadImgs/files/cntnts/20191225180243523_ttiel,,
busan-A-00029,AttractionService:288:ko,busan_confirmed,attraction,AttractionService,5,5,ko|en|ja|zhs|zht,,아미동 비석마을,부산광역시 서구 아미로49,서구,35.099068,129.0127,https://www.visitbusan.net/uploadImgs/files/cntnts/20191226093554532_ttiel,,
busan-A-00030,AttractionService:289:ko,same_place,attraction,AttractionService,6,7,ko|en|ja|zhs|zht|en,KorService2:130166:ko,부산시립미술관,부산광역시 해운대구 APEC로 58,해운대구,35.16702,129.1369,https://www.visitbusan.net/uploadImgs/files/cntnts/20191226100545553_ttiel,,
busan-A-00031,AttractionService:290:ko,busan_confirmed,attraction,AttractionService,5,5,ko|en|ja|zhs|zht,,오랑대공원,부산 기장군 기장읍 시랑리 산1-18,기장군,35.205246,129.22583,https://www.visitbusan.net/uploadImgs/files/cntnts/20191226101451768_ttiel,,
busan-A-00032,AttractionService:291:ko,busan_confirmed,attraction,AttractionService,5,5,ko|en|ja|zhs|zht,,국립수산과학관,부산광역시 기장군 기장읍 기장해안로 216,기장군,35.193687,129.22423,https://www.visitbusan.net/uploadImgs/files/cntnts/20191226102157667_ttiel,,
busan-A-00033,AttractionService:295:ko,busan_confirmed,attraction,AttractionService,5,5,ko|en|ja|zhs|zht,,요산문학관,부산광역시 금정구 팔송로 60-6,금정구,35.27258,129.08571,https://www.visitbusan.net/uploadImgs/files/cntnts/20191226105751809_ttiel,,
busan-A-00034,AttractionService:296:ko,busan_confirmed,attraction,AttractionService,5,5,ko|en|ja|zhs|zht,,박차정의사 생가,부산광역시 동래구 명륜로98번길 129-10,동래구,35.20168,129.0904,https://www.visitbusan.net/uploadImgs/files/cntnts/20191226110347271_ttiel,,
busan-A-00035,AttractionService:297:ko,busan_confirmed,attraction,AttractionService,5,5,ko|en|ja|zhs|zht,,우장춘 기념관,부산광역시 동래구 우장춘로62번길 7,동래구,35.213547,129.07202,https://www.visitbusan.net/uploadImgs/files/cntnts/20191226110901484_ttiel,,
busan-A-00036,AttractionService:298:ko,busan_confirmed,attraction,AttractionService,5,5,ko|en|ja|zhs|zht,,누리바라기전망대,부산광역시 서구 남부민동 50-40,서구,35.09092,129.02019,https://www.visitbusan.net/uploadImgs/files/cntnts/20191226113720642_ttiel,,
busan-A-00037,AttractionService:299:ko,busan_confirmed,attraction,AttractionService,5,5,ko|en|ja|zhs|zht,,"최민식갤러리(한,영,중간,중번,일)",부산광역시 서구 천마산로410,서구,35.09833,129.01472,https://www.visitbusan.net/uploadImgs/files/cntnts/20191226115628787_ttiel,,
busan-A-00038,AttractionService:301:ko,busan_confirmed,attraction,AttractionService,5,5,ko|en|ja|zhs|zht,,수영사적공원,부산광역시 수영구 수영성로 43,수영구,35.170967,129.1143,https://www.visitbusan.net/uploadImgs/files/cntnts/20191226132135171_ttiel,,
busan-A-00039,AttractionService:302:ko,busan_confirmed,attraction,AttractionService,5,5,ko|en|ja|zhs|zht,,부산기상관측소,부산광역시 중구 복병산길32번길 5-11,중구,35.104973,129.03218,https://www.visitbusan.net/uploadImgs/files/cntnts/20191226132812226_ttiel,,
busan-A-00040,AttractionService:304:ko,busan_confirmed,attraction,AttractionService,5,5,ko|en|ja|zhs|zht,,"철새와 함께하는 아름다운 문화의 향연, 을숙도(한,영,중간,중번,일)",부산광역시 사하구 낙동남로 1240,사하구,35.107143,128.94283,https://www.visitbusan.net/uploadImgs/files/cntnts/20191226143325464_ttiel,,
busan-A-00041,AttractionService:308:ko,busan_confirmed,attraction,AttractionService,5,5,ko|en|ja|zhs|zht,,부산시청자미디어센터,부산광역시 해운대구 센텀중앙로 42,해운대구,35.17255,129.1302,https://www.visitbusan.net/uploadImgs/files/cntnts/20191226152407686_ttiel,,
busan-A-00042,AttractionService:313:ko,same_place,attraction,AttractionService,5,6,ko|en|ja|zhs|zht,KorService2:2755676:ko,"구포어린이교통공원(한,영,중간,중번,일)",부산광역시 북구 낙동북로 687,북구,35.200676,129.0009,https://www.visitbusan.net/uploadImgs/files/cntnts/20191226182356876_ttiel,,
busan-A-00043,AttractionService:314:ko,busan_confirmed,attraction,AttractionService,5,5,ko|en|ja|zhs|zht,,부산솔로몬로파크,부산광역시 북구 낙동북로 755,북구,35.200798,129.00198,https://www.visitbusan.net/uploadImgs/files/cntnts/20191226183133502_ttiel,,
busan-A-00044,AttractionService:315:ko,busan_confirmed,attraction,AttractionService,5,5,ko|en|ja|zhs|zht,,부산어촌민속관,부산광역시 북구 학사로 128,북구,35.234074,129.00859,https://www.visitbusan.net/uploadImgs/files/cntnts/20191226184130120_ttiel,,
busan-A-00045,AttractionService:325:ko,busan_confirmed,attraction,AttractionService,5,5,ko|en|ja|zhs|zht,,삼락생태공원,부산광역시 사상구 삼락동 29-46,사상구,35.16884,128.97397,https://www.visitbusan.net/uploadImgs/files/cntnts/20230602100722403_ttiel,,
busan-A-00046,AttractionService:326:ko,busan_confirmed,attraction,AttractionService,5,5,ko|en|ja|zhs|zht,,"암남공원, 송도해안볼레길",부산광역시 서구 암남동 산193,서구,35.058804,129.01566,https://www.visitbusan.net/uploadImgs/files/cntnts/20191227112720050_ttiel,,
busan-A-00047,AttractionService:333:ko,busan_confirmed,attraction,AttractionService,5,5,ko|en|ja|zhs|zht,,장림포구 (부네치아),부산광역시 사하구 장림로93번길 72,사하구,35.080727,128.95694,https://www.visitbusan.net/uploadImgs/files/cntnts/20191227160751479_ttiel,,
busan-A-00048,AttractionService:334:ko,busan_confirmed,attraction,AttractionService,5,5,ko|en|ja|zhs|zht,,가덕도,부산광역시 강서구 가덕해안로 21,강서구,35.022896,128.8172,https://www.visitbusan.net/uploadImgs/files/cntnts/20191227161822663_ttiel,,
busan-A-00049,AttractionService:335:ko,busan_confirmed,attraction,AttractionService,5,5,ko|en|ja|zhs|zht,,렛츠런파크 부산경남,부산광역시 강서구 가락대로 929,강서구,35.1566,128.87521,https://www.visitbusan.net/uploadImgs/files/cntnts/20191227163229549_ttiel,,
busan-A-00050,AttractionService:340:ko,busan_confirmed,attraction,AttractionService,5,5,ko|en|ja|zhs|zht,,국립부산과학관,부산광역시 기장군 기장읍 동부산관광6로 59,기장군,35.20468,129.2127,https://www.visitbusan.net/uploadImgs/files/cntnts/20230901132543063_ttiel,,
busan-A-00051,AttractionService:343:ko,busan_confirmed,attraction,AttractionService,5,5,ko|en|ja|zhs|zht,,송상현광장,부산광역시 부산진구 중앙대로 지하 818(전포동),부산진구,35.166397,129.06595,https://www.visitbusan.net/uploadImgs/files/cntnts/20191227175243198_ttiel,,
busan-A-00052,AttractionService:344:ko,busan_confirmed,attraction,AttractionService,5,5,ko|en|ja|zhs|zht,,어린이대공원,부산광역시 부산진구 새싹로 295,부산진구,35.184998,129.04153,https://www.visitbusan.net/uploadImgs/files/cntnts/20191227180139517_ttiel,,
busan-A-00053,AttractionService:346:ko,busan_confirmed,attraction,AttractionService,5,5,ko|en|ja|zhs|zht,,국립부산국악원,부산광역시 부산진구 국악로2,부산진구,35.17132,129.05424,https://www.visitbusan.net/uploadImgs/files/cntnts/20191227181259877_ttiel,,
busan-A-00054,AttractionService:347:ko,busan_confirmed,attraction,AttractionService,5,5,ko|en|ja|zhs|zht,,삼광사,부산광역시 부산진구 초읍천로43번길 77,부산진구,35.175694,129.04338,https://www.visitbusan.net/uploadImgs/files/cntnts/20191227184611977_ttiel,,
busan-A-00055,AttractionService:348:ko,busan_confirmed,attraction,AttractionService,5,5,ko|en|ja|zhs|zht,,청사포와 미포,청사포 부산광역시  해운대구 청사포로128번길 25 미포 부산광역시 해운대구 달맞이길62번길,해운대구,35.1602,129.19138,https://www.visitbusan.net/uploadImgs/files/cntnts/20191227190325222_ttiel,,
busan-A-00056,AttractionService:354:ko,busan_confirmed,attraction,AttractionService,5,5,ko|en|ja|zhs|zht,,부산시민공원,부산광역시 부산진구 시민공원로 73,부산진구,35.16841,129.05739,https://www.visitbusan.net/uploadImgs/files/cntnts/20191227194942971_ttiel,,
busan-A-00057,AttractionService:358:ko,busan_confirmed,attraction,AttractionService,5,5,ko|en|ja|zhs|zht,,"호천마을(한,영,중간,중번,일)",부산광역시 부산진구 엄광로 491,부산진구,35.144295,129.05106,https://www.visitbusan.net/uploadImgs/files/cntnts/20191227202219554_ttiel,,
busan-A-00058,AttractionService:359:ko,busan_confirmed,attraction,AttractionService,5,5,ko|en|ja|zhs|zht,,"봉래산(한,영,중간,중번,일)",부산광역시 영도구 신선동3가 산3,영도구,35.08219,129.05524,https://www.visitbusan.net/uploadImgs/files/cntnts/20191227202829011_ttiel,,
busan-A-00059,AttractionService:361:ko,busan_confirmed,attraction,AttractionService,5,5,ko|en|ja|zhs|zht,,영화의 거리,부산광역시 해운대구 마린시티1로 91,해운대구,35.154633,129.14278,https://www.visitbusan.net/uploadImgs/files/cntnts/20191227203859552_ttiel,,
busan-A-00060,AttractionService:362:ko,busan_confirmed,attraction,AttractionService,5,5,ko|en|ja|zhs|zht,,APEC나루공원,부산광역시 해운대구 수영강변대로 85,해운대구,35.170307,129.12564,https://www.visitbusan.net/uploadImgs/files/cntnts/20191227204420832_ttiel,,
busan-A-00061,AttractionService:364:ko,busan_confirmed,attraction,AttractionService,5,5,ko|en|ja|zhs|zht,,"40계단, 문화관",부산광역시 중구 동광길49,중구,35.103977,129.0346,https://www.visitbusan.net/uploadImgs/files/cntnts/20191229141716592_ttiel,,
busan-A-00062,AttractionService:365:ko,busan_confirmed,attraction,AttractionService,5,5,ko|en|ja|zhs|zht,,감천문화마을,부산광역시 사하구 감내2로 203,사하구,35.095787,129.00926,https://www.visitbusan.net/uploadImgs/files/cntnts/20191229142305006_ttiel,,
busan-A-00063,AttractionService:366:ko,busan_confirmed,attraction,AttractionService,5,5,ko|en|ja|zhs|zht,,다대포 해수욕장,부산광역시 사하구 몰운대1길 14,사하구,35.04652,128.96283,https://www.visitbusan.net/uploadImgs/files/cntnts/20191229143230630_ttiel,,
busan-A-00064,AttractionService:367:ko,same_place,attraction,AttractionService,5,6,ko|en|ja|zhs|zht,KorService2:2554068:ko,부산영화체험박물관/씨네뮤지엄,부산광역시 중구 대청로126번길 12,중구,35.101692,129.0337,https://www.visitbusan.net/uploadImgs/files/cntnts/20191229144834500_ttiel,,
busan-A-00065,AttractionService:368:ko,busan_confirmed,attraction,AttractionService,5,5,ko|en|ja|zhs|zht,,"용두산공원(한,영,중간,중번,일)",부산광역시 중구 용두산길 37-55,중구,35.100723,129.03264,https://www.visitbusan.net/uploadImgs/files/cntnts/20191229145728609_ttiel,,
busan-A-00066,AttractionService:369:ko,same_place,attraction,AttractionService,5,6,ko|en|ja|zhs|zht,KorService2:1942553:ko,영도다리,부산광역시 영도구 태종로 46,영도구,35.095295,129.03656,https://www.visitbusan.net/uploadImgs/files/cntnts/20191229150331682_ttiel,,
busan-A-00067,AttractionService:370:ko,busan_confirmed,attraction,AttractionService,5,5,ko|en|ja|zhs|zht,,"중앙공원, 민주공원",중앙공원 부산광역시 서구 망양로 193번길 187 민주공원 부산광역시 중구 민주공원길 19,중구,35.112125,129.02792,https://www.visitbusan.net/uploadImgs/files/cntnts/20191229150845004_ttiel,,
busan-A-00068,AttractionService:371:ko,same_place,attraction,AttractionService,6,7,ko|en|ja|zhs|zht|en,KorService2:128290:ko,"황령산 전망쉼터(한,영,중간,중번,일)",부산광역시 남구 황령산로 391-39,남구,35.158115,129.08269,https://www.visitbusan.net/uploadImgs/files/cntnts/20191229151710512_ttiel,,
busan-A-00069,AttractionService:372:ko,busan_confirmed,attraction,AttractionService,5,5,ko|en|ja|zhs|zht,,F1963,부산광역시 수영구 구락로123번길 20,수영구,35.176933,129.11496,https://www.visitbusan.net/uploadImgs/files/cntnts/20191229152254942_ttiel,,
busan-A-00070,AttractionService:373:ko,same_place,attraction,AttractionService,6,7,ko|en|ja|zhs|zht|en,KorService2:127004:ko,해운대,부산광역시 해운대구 해운대해변로 264,해운대구,35.158474,129.15987,https://www.visitbusan.net/uploadImgs/files/cntnts/20191229153530528_ttiel,,
busan-A-00071,AttractionService:377:ko,busan_confirmed,attraction,AttractionService,5,5,ko|en|ja|zhs|zht,,광안리해수욕장,부산광역시 수영구 광안해변로 219,수영구,35.15318,129.11887,https://www.visitbusan.net/uploadImgs/files/cntnts/20191229160529389_ttiel,,
busan-A-00072,AttractionService:396:ko,busan_confirmed,attraction,AttractionService,5,5,ko|en|ja|zhs|zht,,금정산,부산광역시 금정구 금성동,금정구,35.280136,129.0512,https://www.visitbusan.net/uploadImgs/files/cntnts/20191230180640227_ttiel,,
busan-A-00073,AttractionService:397:ko,busan_confirmed,attraction,AttractionService,5,5,ko|en|ja|zhs|zht,,금강공원&식물원,부산 동래구 우장춘로 175-146 칠성암,동래구,35.22047,129.07494,https://www.visitbusan.net/uploadImgs/files/cntnts/20191230181126685_ttiel,,
busan-A-00074,AttractionService:402:ko,busan_confirmed,attraction,AttractionService,5,5,ko|en|ja|zhs|zht,,"범어사 (한,영,중간,중번,일)",부산광역시 금정구 범어사로 250,금정구,35.283646,129.06854,https://www.visitbusan.net/uploadImgs/files/cntnts/20191230190101989_ttiel,,
busan-A-00075,AttractionService:409:ko,busan_confirmed,attraction,AttractionService,5,5,ko|en|ja|zhs|zht,,동래읍성,부산 동래구 명륜동 산48-2,동래구,35.20975,129.08997,https://www.visitbusan.net/uploadImgs/files/cntnts/20191230194923757_ttiel,,
busan-A-00076,AttractionService:415:ko,busan_confirmed,attraction,AttractionService,5,5,ko|en|ja|zhs|zht,,상해거리,부산광역시 동구 중앙대로179번길 1,동구,35.113808,129.03786,https://www.visitbusan.net/uploadImgs/files/cntnts/20191230203235198_ttiel,,
busan-A-00077,AttractionService:418:ko,busan_confirmed,attraction,AttractionService,5,5,ko|en|ja|zhs|zht,,"이중섭문화거리(한,영,중간,중번,일)",부산광역시 동구 증산로 168,동구,35.14069,129.05289,https://www.visitbusan.net/uploadImgs/files/cntnts/20191230205059771_ttiel,,
busan-A-00078,AttractionService:419:ko,busan_confirmed,attraction,AttractionService,5,5,ko|en|ja|zhs|zht,,"복천박물관, 복천동고분군",부산광역시 동래구 복천로 63,동래구,35.208885,129.09116,https://www.visitbusan.net/uploadImgs/files/cntnts/20191230205640434_ttiel,,
busan-A-00079,AttractionService:420:ko,same_place,attraction,AttractionService,6,7,ko|en|ja|zhs|zht|en,KorService2:130668:ko,벡스코,부산광역시 해운대구 APEC로 55,해운대구,35.169247,129.13628,https://www.visitbusan.net/uploadImgs/files/cntnts/20191230210019945_ttiel,,
busan-A-00080,AttractionService:421:ko,busan_confirmed,attraction,AttractionService,5,5,ko|en|ja|zhs|zht,,"영화의 전당(한,영,중간,중번,일)",부산광역시 해운대구 수영강변대로 120,해운대구,35.171055,129.12703,https://www.visitbusan.net/uploadImgs/files/cntnts/20191230210358362_ttiel,,
busan-A-00081,AttractionService:425:ko,busan_confirmed,attraction,AttractionService,5,5,ko|en|ja|zhs|zht,,"장안사(한,영,중간,중번,일)",부산광역시 기장군 장안읍 장안로 482,기장군,35.37473,129.2329,https://www.visitbusan.net/uploadImgs/files/cntnts/20191231091948765_ttiel,,
busan-A-00082,AttractionService:426:ko,busan_confirmed,attraction,AttractionService,5,5,ko|en|ja|zhs|zht,,백양산,부산광역시 부산진구 당감동,부산진구,35.182827,129.02196,https://www.visitbusan.net/uploadImgs/files/cntnts/20191231092729834_ttiel,,
busan-A-00083,AttractionService:430:ko,busan_confirmed,attraction,AttractionService,5,5,ko|en|ja|zhs|zht,,성지곡수원지,부산광역시 부산진구 새싹로 295,부산진구,35.187065,129.04105,https://www.visitbusan.net/uploadImgs/files/cntnts/20191231100856743_ttiel,,
busan-A-00084,AttractionService:432:ko,busan_confirmed,attraction,AttractionService,5,5,ko|en|ja|zhs|zht,,"장산(한,영,중간,중번,일)",부산광역시 해운대구 좌동 1390(대천공원),해운대구,35.193577,129.14497,https://www.visitbusan.net/uploadImgs/files/cntnts/20191231101745599_ttiel,,
busan-A-00085,AttractionService:433:ko,busan_confirmed,attraction,AttractionService,5,5,ko|en|ja|zhs|zht,,석불사,부산광역시 북구 만덕고개길 143-79,북구,35.221504,129.04861,https://www.visitbusan.net/uploadImgs/files/cntnts/20191231102223413_ttiel,,
busan-A-00086,AttractionService:439:ko,same_place,attraction,AttractionService,5,6,ko|en|ja|zhs|zht,KorService2:1607360:ko,"동래향교, 기장향교(한,영,중간,중번,일)",부산광역시 동래구 동래로 103(동래향교) 부산광역시 기장군 기장읍 차성로417번길 35(기장향교),동래구,35.207752,129.0841,https://www.visitbusan.net/uploadImgs/files/cntnts/20191231111302355_ttiel,,
busan-A-00087,AttractionService:444:ko,busan_confirmed,attraction,AttractionService,5,5,ko|en|ja|zhs|zht,,"가덕도 연대봉(한,영,중간,중번,일)",부산광역시 강서구 천성동,강서구,35.026875,128.83395,https://www.visitbusan.net/uploadImgs/files/cntnts/20191231180337567_ttiel,,
busan-A-00088,AttractionService:445:ko,busan_confirmed,attraction,AttractionService,5,5,ko|en|ja|zhs|zht,,승학산 억새평원,부산광역시 사하구 당리동 산 45-1,사하구,35.116604,128.97968,https://www.visitbusan.net/uploadImgs/files/cntnts/20191231181104098_ttiel,,
busan-A-00089,AttractionService:450:ko,busan_confirmed,attraction,AttractionService,5,5,ko|en|ja|zhs|zht,,"대룡마을(한,영,중간,중번,일)",부산광역시 기장군 장안읍 대룡1길 17,기장군,35.371174,129.26433,https://www.visitbusan.net/uploadImgs/files/cntnts/20191231184354051_ttiel,,
busan-A-00090,AttractionService:456:ko,busan_confirmed,attraction,AttractionService,5,5,ko|en|ja|zhs|zht,,대신공원,부산광역시 서구 대신공원로 37-18,서구,35.121544,129.01619,https://www.visitbusan.net/uploadImgs/files/cntnts/20191231192024538_ttiel,,
busan-A-00091,AttractionService:457:ko,busan_confirmed,attraction,AttractionService,5,5,ko|en|ja|zhs|zht,,"화명수목원(한,영,중간,중번,일)",부산광역시 북구 산성로 299,북구,35.25257,129.04205,https://www.visitbusan.net/uploadImgs/files/cntnts/20191231192531286_ttiel,,
busan-A-00092,AttractionService:458:ko,same_place,attraction,AttractionService,5,6,ko|en|ja|zhs|zht,KorService2:128053:ko,선암사,부산광역시 부산진구 백양산로 138,부산진구,35.176968,129.02771,https://www.visitbusan.net/uploadImgs/files/cntnts/20191231193124555_ttiel,,
busan-A-00093,AttractionService:459:ko,same_place,attraction,AttractionService,5,6,ko|en|ja|zhs|zht,KorService2:346661:ko,운수사,부산광역시 사상구 모라로219번길 173,사상구,35.18432,129.01346,https://www.visitbusan.net/uploadImgs/files/cntnts/20191231193736138_ttiel,,
busan-A-00094,AttractionService:463:ko,busan_confirmed,attraction,AttractionService,5,5,ko|en|ja|zhs|zht,,"스포원파크(한,영,중간,중번,일)",부산광역시 금정구 체육공원로399번길 324,금정구,35.291504,129.10487,https://www.visitbusan.net/uploadImgs/files/cntnts/20251201114557109_ttiel,,
busan-A-00095,AttractionService:483:ko,busan_confirmed,attraction,AttractionService,5,5,ko|en|ja|zhs|zht,,"우암동 소막마을(한,영,중간,중번,일)",부산광역시 남구 우암번영로 19,남구,35.1256,129.07018,https://www.visitbusan.net/uploadImgs/files/cntnts/20200101164518953_ttiel,,
busan-A-00096,AttractionService:501:ko,busan_confirmed,attraction,AttractionService,5,5,ko|en|ja|zhs|zht,,"충렬사(한,영,중간,중번,일)",부산광역시 동래구 충렬대로 347,동래구,35.20119,129.09607,https://www.visitbusan.net/uploadImgs/files/cntnts/20200102125306322_ttiel,,
busan-A-00097,AttractionService:508:ko,busan_confirmed,attraction,AttractionService,5,5,ko|en|ja|zhs|zht,,부산커피박물관,부산광역시 부산진구 동천로 70 2층 207호,부산진구,35.15433,129.06453,https://www.visitbusan.net/uploadImgs/files/cntnts/20200102141456051_ttiel,,
busan-A-00098,AttractionService:511:ko,busan_confirmed,attraction,AttractionService,5,5,ko|en|ja|zhs|zht,,사상생활사박물관,부산광역시 사상구 낙동대로1258번길 36,사상구,35.172,128.97871,https://www.visitbusan.net/uploadImgs/files/cntnts/20200102142920888_ttiel,,
busan-A-00099,AttractionService:527:ko,busan_confirmed,attraction,AttractionService,5,5,ko|en|ja|zhs|zht,,사직야구장,부산광역시 동래구 사직로 45,동래구,35.194107,129.06151,https://www.visitbusan.net/uploadImgs/files/cntnts/20200110144727057_ttiel,,
busan-A-00100,AttractionService:550:ko,same_place,attraction,AttractionService,6,7,ko|en|ja|zhs|zht|en,KorService2:1277679:ko,"부산타워(한,영,중간,중번,일)",부산광역시 중구 용두산길 37-30,중구,35.10119,129.0323,https://www.visitbusan.net/uploadImgs/files/cntnts/20200206095452989_ttiel,,
busan-A-00101,AttractionService:757:ko,busan_confirmed,attraction,AttractionService,2,2,ko|en,,"신평소공원(한, 영)",부산광역시 기장군 일광면 신평리 11-1,기장군,35.29337,129.26012,https://www.visitbusan.net/uploadImgs/files/cntnts/20200514115750295_ttiel,,
busan-A-00102,AttractionService:804:ko,busan_unlinked,attraction,AttractionService,1,1,ko,,기장 도예 관광 힐링촌 테마숲(한),부산광역시 기장군 장안읍 기룡리 산126,기장군,35.360134,129.23999,https://www.visitbusan.net/uploadImgs/files/cntnts/20200706141824447_ttiel,,
busan-A-00103,AttractionService:813:ko,busan_unlinked,attraction,AttractionService,1,1,ko,,부산신발이야기(한),부산광역시 부산진구 백양대로 227(한국신발관) 부산광역시 동구 범곡북로 22-12(누나의길),동구,35.141808,129.0536,https://www.visitbusan.net/uploadImgs/files/cntnts/20200706134923010_ttiel,,
busan-A-00104,AttractionService:832:ko,busan_confirmed,attraction,AttractionService,2,2,ko|zhs,,"오션블루 가덕휴게소(한, 중간)",부산광역시 강서구 거가대로 2571,강서구,35.023594,128.80673,https://www.visitbusan.net/uploadImgs/files/cntnts/20200717114524295_ttiel,,
busan-A-00105,AttractionService:833:ko,busan_manual_review,attraction,AttractionService,5,5,ko|en|ja|zhs|zht,,"송도용궁구름다리(한,영, 중간, 중번)",부산광역시 서구 암남동 620-53,서구,35.06194,129.02191,https://www.visitbusan.net/uploadImgs/files/cntnts/20200717114921294_ttiel,,
busan-A-00106,AttractionService:838:ko,busan_confirmed,attraction,AttractionService,5,5,ko|en|ja|zhs|zht,,"정승빈작가-우암동 소막마을(한,영,중간,중번,일)",부산광역시 남구 우암번영로 40-1,남구,35.126194,129.07597,https://www.visitbusan.net/uploadImgs/files/cntnts/20200722140028489_ttiel,,
busan-A-00107,AttractionService:848:ko,same_place,attraction,AttractionService,6,7,ko|en|ja|zhs|zht|en,KorService2:2660770:ko,"부산치유의 숲(한, 영)",부산광역시 기장군 철마면 철마천로 101,기장군,35.26948,129.12955,https://www.visitbusan.net/uploadImgs/files/cntnts/20200729150013892_ttiel,,
busan-A-00108,AttractionService:859:ko,same_place,attraction,AttractionService,2,3,ko|zhs,KorService2:2744597:ko,구덕문화공원(한),부산광역시 서구 꽃마을로163번길 73,서구,35.12617,129.00514,https://www.visitbusan.net/uploadImgs/files/cntnts/20200812172315522_ttiel,,
busan-A-00109,AttractionService:876:ko,busan_confirmed,attraction,AttractionService,5,5,ko|en|ja|zhs|zht,,"정승빈작가-아미동비석마을(한,영,중간,중번,일)",부산광역시 서구 아미로49,서구,35.09903,129.0126,https://www.visitbusan.net/uploadImgs/files/cntnts/20200818133843206_ttiel,,
busan-A-00110,AttractionService:1014:ko,busan_confirmed,attraction,AttractionService,5,5,ko|en|ja|zhs|zht,,"힐링하기 좋은 부산 어촌마을 (한,영,중간,중번,일)",대항어촌마을 부산광역시 강서구 가덕해안로1207번길 9-2 정거마을 부산광역시 강서구 눌차동,강서구,35.012188,128.82697,https://www.visitbusan.net/uploadImgs/files/cntnts/20201030154341972_ttiel,,
busan-A-00111,AttractionService:1016:ko,busan_confirmed,attraction,AttractionService,5,5,ko|en|ja|zhs|zht,,"턴투워드부산(한,영,중간,중번,일)",유엔기념공원 부산광역시 남구 유엔평화로 93 유엔평화기념관 부산광역시 남구 홍곡로320번길 106,남구,35.127785,129.09766,https://www.visitbusan.net/uploadImgs/files/cntnts/20201106141515814_ttiel,,
busan-A-00112,AttractionService:1024:ko,busan_confirmed,attraction,AttractionService,5,5,ko|en|ja|zhs|zht,,"기장 달음산 자연휴양림(한,영,중간,중번,일)",부산광역시 기장군 일광면 화용길 299-106,기장군,35.30242,129.18535,https://www.visitbusan.net/uploadImgs/files/cntnts/20201201103753100_ttiel,,
busan-A-00113,AttractionService:1031:ko,busan_confirmed,attraction,AttractionService,5,5,ko|en|ja|zhs|zht,,"부산도서관(한,영,중간,중번,일)",부산광역시 사상구 사상로310번길 33,사상구,35.172737,128.98526,https://www.visitbusan.net/uploadImgs/files/cntnts/20201216170753435_ttiel,,
busan-A-00114,AttractionService:1142:ko,busan_confirmed,attraction,AttractionService,5,5,ko|en|ja|zhs|zht,,"해운대수목원 (한,영,중간,중번,일)",부산광역시 해운대구 석대동 77,해운대구,35.22992,129.1327,https://www.visitbusan.net/uploadImgs/files/cntnts/20230202161355598_ttiel,,
busan-A-00115,AttractionService:1179:ko,busan_confirmed,attraction,AttractionService,5,5,ko|en|ja|zhs|zht,,"영도 봉산마을(한,영,중간,중번,일)",영도구 오동꽃길 32 베리베리굿봉산센터,영도구,35.09309,129.05125,https://www.visitbusan.net/uploadImgs/files/cntnts/20211116151308755_ttiel,,
busan-A-00116,AttractionService:1185:ko,busan_confirmed,attraction,AttractionService,5,5,ko|en|ja|zhs|zht,,"KT&G상상마당 부산(한,영,중간,중번,일)",부산광역시 부산진구 서면로 39,부산진구,35.15431,129.05728,https://www.visitbusan.net/uploadImgs/files/cntnts/20211123183743098_ttiel,,
busan-A-00117,AttractionService:1305:ko,busan_confirmed,attraction,AttractionService,5,5,ko|en|ja|zhs|zht,,"광안종합시장 (한,영,중간,중번,일)",부산광역시 수영구 무학로49번길 71,수영구,35.164215,129.11816,https://www.visitbusan.net/uploadImgs/files/cntnts/20220711140504179_ttiel,,
busan-A-00118,AttractionService:1310:ko,same_place,attraction,AttractionService,6,7,ko|en|ja|zhs|zht|en,KorService2:2815627:ko,"롯데월드 어드벤처 부산 (한,영,중간,중번,일)",부산광역시 기장군 기장읍 동부산관광로 42,기장군,35.19602,129.2132,https://www.visitbusan.net/uploadImgs/files/cntnts/20220901105446739_ttiel,,
busan-A-00119,AttractionService:1322:ko,busan_confirmed,attraction,AttractionService,5,5,ko|en|ja|zhs|zht,,"현대 모터스튜디오 부산(한,영,중간,중번,일)",부산광역시 수영구 구락로123번길 20,수영구,35.17674,129.11513,https://www.visitbusan.net/uploadImgs/files/cntnts/20220913120133333_ttiel,,
busan-A-00120,AttractionService:1329:ko,same_place,attraction,AttractionService,6,7,ko|en|ja|zhs|zht|en,KorService2:2994179:ko,"힙함 가득한 전포공구길(한,영,중간,중번,일)",부산광역시 부산진구 서전로37번길 20,부산진구,35.15876,129.06415,https://www.visitbusan.net/uploadImgs/files/cntnts/20220921114402310_ttiel,,
busan-A-00121,AttractionService:1422:ko,busan_confirmed,attraction,AttractionService,5,5,ko|en|ja|zhs|zht,,"송도해상케이블카(한,영,중간,중번,일)",부산광역시 서구 송도해변로 171,서구,35.076286,129.02365,https://www.visitbusan.net/uploadImgs/files/cntnts/20230508183214812_ttiel,,
busan-A-00122,AttractionService:1434:ko,busan_confirmed,attraction,AttractionService,5,5,ko|en|ja|zhs|zht,,"화명생태공원(한,영,중간,중번,일)",화명장미원  부산광역시 북구 화명동 2280 화명생태공원  부산광역시 북구 화명동 1718-17,북구,35.22568,129.00327,https://www.visitbusan.net/uploadImgs/files/cntnts/20230519190619574_ttiel,,
busan-A-00123,AttractionService:1440:ko,busan_confirmed,attraction,AttractionService,5,5,ko|en|ja|zhs|zht,,"태종대자동차극장(한,영,중간,중번,일)",CGV DRIVE IN 영도 : 부산광역시 영도구 동삼동 1009 태종대 : 부산광역시 영도구 전망로 24 흰여울문화마을 : 부산광역시영도구 영선동4가 605-3 절영해안산책로 : 부산광역시 영도구 해안산책길 52 깡깡이예술마을 : 부산광역시 영도구 대평북로 36,영도구,35.062366,129.08342,https://www.visitbusan.net/uploadImgs/files/cntnts/20230525134753245_ttiel,,
busan-A-00124,AttractionService:1444:ko,same_place,attraction,AttractionService,6,7,ko|en|ja|zhs|zht|en,KorService2:2784363:ko,"부산근현대역사관 별관(한,영,중간,중번,일)",부산광역시 중구 대청로 104,중구,35.10258,129.03203,https://www.visitbusan.net/uploadImgs/files/cntnts/20230602095512309_ttiel,,
busan-A-00125,AttractionService:1449:ko,busan_confirmed,attraction,AttractionService,5,5,ko|en|ja|zhs|zht,,"우암동 도시숲(한,영,중간,중번,일)",부산 남구 동항로106번가길 6,남구,35.127033,129.07382,https://www.visitbusan.net/uploadImgs/files/cntnts/20230531220739285_ttiel,,
busan-A-00126,AttractionService:1653:ko,busan_confirmed,attraction,AttractionService,5,5,ko|en|ja|zhs|zht,,"서면미술관(한,영,중간,중번,일)","부산광역시 부산진구 동천로 58, 2층",부산진구,35.153927,129.06252,https://www.visitbusan.net/uploadImgs/files/cntnts/20230623172451559_ttiel,,
busan-A-00127,AttractionService:1671:ko,busan_confirmed,attraction,AttractionService,5,5,ko|en|ja|zhs|zht,,"부산현대미술관(한,영,중간,중번,일)",부산광역시 사하구 낙동남로 1191,사하구,35.109245,128.94263,https://www.visitbusan.net/uploadImgs/files/cntnts/20230707174450394_ttiel,,
busan-A-00128,AttractionService:1673:ko,busan_confirmed,attraction,AttractionService,5,5,ko|en|ja|zhs|zht,,"대저생태공원(한,영,중간,중번,일)",부산 강서구 대저1동 1-5,강서구,35.20406,128.98305,https://www.visitbusan.net/uploadImgs/files/cntnts/20230713153840580_ttiel,,
busan-A-00129,AttractionService:1674:ko,busan_confirmed,attraction,AttractionService,5,5,ko|en|ja|zhs|zht,,"맥도생태공원(한,영,중간,중번,일)",부산광역시 강서구 대저2동 1200-32,강서구,35.152267,128.95494,https://www.visitbusan.net/uploadImgs/files/cntnts/20230713150615959_ttiel,,
busan-A-00130,AttractionService:1676:ko,busan_confirmed,attraction,AttractionService,5,5,ko|en|ja|zhs|zht,,"금빛노을브릿지(한,영,중간,중번,일)",부산광역시 북구 구포동,북구,35.21049,129.0017,https://www.visitbusan.net/uploadImgs/files/cntnts/20230720175854890_ttiel,,
busan-A-00131,AttractionService:1677:ko,busan_confirmed,attraction,AttractionService,5,5,ko|en|ja|zhs|zht,,"감전야생화단지(한,영,중간,중번,일)",부산광역시 사상구 감전동 873,사상구,35.142826,128.96594,https://www.visitbusan.net/uploadImgs/files/cntnts/20230723172025932_ttiel,,
busan-A-00132,AttractionService:1696:ko,busan_confirmed,attraction,AttractionService,5,5,ko|en|ja|zhs|zht,,"국제커피박물관(한,영,중간,중번,일)","부산광역시 동구 중앙대로 380(좌천동, 구.부산진역)",동구,35.12724,129.04846,https://www.visitbusan.net/uploadImgs/files/cntnts/20230818114709553_ttiel,,
busan-A-00133,AttractionService:1709:ko,same_place,attraction,AttractionService,5,6,ko|en|ja|zhs|zht,KorService2:2823059:ko,"박태준기념관(한,영,중간,중번,일)",부산광역시 기장군 장안읍 임랑해안길 1,기장군,35.316902,129.26108,https://www.visitbusan.net/uploadImgs/files/cntnts/20230914182558311_ttiel,,
busan-A-00134,AttractionService:1718:ko,busan_confirmed,attraction,AttractionService,5,5,ko|en|ja|zhs|zht,,"다대포해변공원(한,영,중간,중번,일)",부산광역시 사하구 다대동 1674,사하구,35.04586,128.96655,https://www.visitbusan.net/uploadImgs/files/cntnts/20230921171143286_ttiel,,
busan-A-00135,AttractionService:1731:ko,same_place,attraction,AttractionService,5,6,ko|en|ja|zhs|zht,KorService2:128055:ko,"유엔평화공원(한,영,중간,중번,일)",부산광역시 남구 대연동 707,남구,35.125774,129.10027,https://www.visitbusan.net/uploadImgs/files/cntnts/20231026100047318_ttiel,,
busan-A-00136,AttractionService:1772:ko,busan_confirmed,attraction,AttractionService,5,5,ko|en|ja|zhs|zht,,"정중앙공원(한,영,중간,중번,일)",부산광역시 부산진구 부암동 541-9,부산진구,35.17038,129.03691,https://www.visitbusan.net/uploadImgs/files/cntnts/20240103105345242_ttiel,,
busan-A-00137,AttractionService:1776:ko,busan_confirmed,attraction,AttractionService,5,5,ko|en|ja|zhs|zht,,"복천사(한,영,중간,중번,일)",부산광역시 영도구 산정길 41,영도구,35.082603,129.05058,https://www.visitbusan.net/uploadImgs/files/cntnts/20240207102023070_ttiel,,
busan-A-00138,AttractionService:1777:ko,busan_confirmed,attraction,AttractionService,5,5,ko|en|ja|zhs|zht,,"인공철새서식지 명품둘레길(한,영,중간,중번,일)",부산광역시 강서구 신호동 203,강서구,35.082302,128.88304,https://www.visitbusan.net/uploadImgs/files/cntnts/20240201225043211_ttiel,,
busan-A-00139,AttractionService:1796:ko,busan_confirmed,attraction,AttractionService,5,5,ko|en|ja|zhs|zht,,"목련꽃 가득 안은 성암사, 나만 알고 싶은 봄꽃 성지(한,영,중간,중번,일)",부산광역시 남구 진남로 210번길 58-15,남구,35.145626,129.08005,https://www.visitbusan.net/uploadImgs/files/cntnts/20240321001620807_ttiel,,
busan-A-00140,AttractionService:1798:ko,busan_confirmed,attraction,AttractionService,5,5,ko|en|ja|zhs|zht,,"땅뫼산 황토숲길(한,영,중간,중번,일)",부산광역시 금정구 오륜동  352-3,금정구,35.247078,129.12192,https://www.visitbusan.net/uploadImgs/files/cntnts/20240401133553180_ttiel,,
busan-A-00141,AttractionService:1857:ko,busan_confirmed,attraction,AttractionService,5,5,ko|en|ja|zhs|zht,,"인도문화원(한,영,중간,중번,일)",부산광역시 남구 유엔로 171-1 인디아더센터,남구,35.13031,129.09508,https://www.visitbusan.net/uploadImgs/files/cntnts/20240503180255101_ttiel,,
busan-A-00142,AttractionService:1862:ko,busan_confirmed,attraction,AttractionService,5,5,ko|en|ja|zhs|zht,,"KF아세안문화원(한,영,중간,중번,일)",부산광역시 해운대구 좌동로 162,해운대구,35.17519,129.18196,https://www.visitbusan.net/uploadImgs/files/cntnts/20240528134839123_ttiel,,
busan-A-00143,AttractionService:1866:ko,busan_confirmed,attraction,AttractionService,5,5,ko|en|ja|zhs|zht,,"오초량(한,영,중간,중번,일)",부산광역시 동구 고관로13번나길 22 1층,동구,35.12196,129.04192,https://www.visitbusan.net/uploadImgs/files/cntnts/20240528140620645_ttiel,,
busan-A-00144,AttractionService:1867:ko,busan_confirmed,attraction,AttractionService,5,5,ko|en|ja|zhs|zht,,"부산이슬람성원(한,영,중간,중번,일)",부산광역시 금정구 금단로 113-13,금정구,35.259975,129.09227,https://www.visitbusan.net/uploadImgs/files/cntnts/20240528135430979_ttiel,,
busan-A-00145,AttractionService:1868:ko,busan_confirmed,attraction,AttractionService,5,5,ko|en|ja|zhs|zht,,"친환경스카이웨이전망대(한,영,중간,중번,일)",부산광역시 동구 망양로 533-33,동구,35.12086,129.03201,https://www.visitbusan.net/uploadImgs/files/cntnts/20240527143901347_ttiel,,
busan-A-00146,AttractionService:1881:ko,same_place,attraction,AttractionService,5,6,ko|en|ja|zhs|zht,KorService2:3083767:ko,"부산근현대역사관 본관(한,영,중간,중번,일)",부산광역시 중구 대청로 112 부산근현대역사관 본관 주차장 없음(공영주차장 이용),중구,35.102566,129.03214,https://www.visitbusan.net/uploadImgs/files/cntnts/20240605163754301_ttiel,,
busan-A-00147,AttractionService:1890:ko,busan_confirmed,attraction,AttractionService,5,5,ko|en|ja|zhs|zht,,"무사이(한, 영, 중간, 중번, 일)",부산광역시 북구 산성로12번길 21 우신상가 지하1층,북구,35.23837,129.01569,https://www.visitbusan.net/uploadImgs/files/cntnts/20240626113937766_ttiel,,
busan-A-00148,AttractionService:1900:ko,busan_confirmed,attraction,AttractionService,5,5,ko|en|ja|zhs|zht,,"부산 트래블라운지 (한, 영, 중간, 중번, 일)","부산광역시 동구 대영로243번길 38 1, 2층",동구,35.113834,129.03818,https://www.visitbusan.net/uploadImgs/files/cntnts/20240703180805305_ttiel,,
busan-A-00149,AttractionService:2013:ko,busan_confirmed,attraction,AttractionService,5,5,ko|en|ja|zhs|zht,,"반여 초록공원 장산계곡(한,영,중간,중번,일)",부산광역시 해운대구 반여동 산111-2,해운대구,35.203255,129.13632,https://www.visitbusan.net/uploadImgs/files/cntnts/20240809155702729_ttiel,,
busan-A-00150,AttractionService:2019:ko,busan_confirmed,attraction,AttractionService,5,5,ko|en|ja|zhs|zht,,"중앙공원(구 대신공원) 대신계곡(한,영,중간,중번,일)",부산광역시 서구 보수대로320번길 59,서구,35.121838,129.01567,https://www.visitbusan.net/uploadImgs/files/cntnts/20240809161549849_ttiel,,
busan-A-00151,AttractionService:2024:ko,same_place,attraction,AttractionService,5,6,ko|en|ja|zhs|zht,KorService2:2661479:ko,"구덕야영장 계곡(한,영,중간,중번,일)",부산광역시 서구 꽃마을로156번길 109 구덕청소년수련관,서구,35.12556,129.00969,https://www.visitbusan.net/uploadImgs/files/cntnts/20240809163409331_ttiel,,
busan-A-00152,AttractionService:2034:ko,busan_confirmed,attraction,AttractionService,5,5,ko|en|ja|zhs|zht,,"범어사 용성계곡(한,영,중간,중번,일)",부산광역시 금정구 범어사로 267,금정구,35.283524,129.06847,https://www.visitbusan.net/uploadImgs/files/cntnts/20240809171647495_ttiel,,
busan-A-00153,AttractionService:2065:ko,busan_confirmed,attraction,AttractionService,5,5,ko|en|ja|zhs|zht,,"용소웰빙공원(한,영,중간,중번,일)",부산광역시 기장군 기장읍 서부리 산7-2,기장군,35.24623,129.20415,https://www.visitbusan.net/uploadImgs/files/cntnts/20240821134135301_ttiel,,
busan-A-00154,AttractionService:2067:ko,busan_confirmed,attraction,AttractionService,5,5,ko|en|ja|zhs|zht,,"국립부산국악원 국악체험관(한,영,중간,중번,일)",부산광역시 부산진구 국악로 2 국립부산국악원,중구,35.171013,129.05438,https://www.visitbusan.net/uploadImgs/files/cntnts/20240826154634475_ttiel,,
busan-A-00155,AttractionService:2077:ko,busan_confirmed,attraction,AttractionService,5,5,ko|en|ja|zhs|zht,,"부산수학문화관(한,영,중간,중번,일)",부산광역시 부산진구 가야대로 734 부산수학문화관,부산진구,35.15666,129.0513,https://www.visitbusan.net/uploadImgs/files/cntnts/20240904145348246_ttiel,,
busan-A-00156,AttractionService:2078:ko,busan_confirmed,attraction,AttractionService,5,5,ko|en|ja|zhs|zht,,"마하사(한,영,중간,중번,일)",부산광역시 연제구 봉수로 138,연제구,35.163532,129.08733,https://www.visitbusan.net/uploadImgs/files/cntnts/20240911101725976_ttiel,,
busan-A-00157,AttractionService:2079:ko,busan_confirmed,attraction,AttractionService,5,5,ko|en|ja|zhs|zht,,"이바구길 사진관(한,영,중간,중번,일)",부산광역시 동구 초량로13번길 66 1층 이바구길사진관,동구,35.11625,129.03874,https://www.visitbusan.net/uploadImgs/files/cntnts/20240910171845448_ttiel,,
busan-A-00158,AttractionService:2081:ko,busan_confirmed,attraction,AttractionService,5,5,ko|en|ja|zhs|zht,,"북항 친수공원(한,영,중간,중번,일)",부산광역시 동구 이순신대로 164,동구,35.11442,129.04637,https://www.visitbusan.net/uploadImgs/files/cntnts/20240911140423764_ttiel,,
busan-A-00159,AttractionService:2082:ko,busan_confirmed,attraction,AttractionService,5,5,ko|en|ja|zhs|zht,,"북항재개발 홍보관(한,영,중간,중번,일)",부산광역시 동구 초량동 45-66,동구,35.11751,129.04921,https://www.visitbusan.net/uploadImgs/files/cntnts/20240911173034092_ttiel,,
busan-A-00160,AttractionService:2085:ko,busan_confirmed,attraction,AttractionService,5,5,ko|en|ja|zhs|zht,,"문화예술플랫폼(한,영,중간,중번,일)",부산광역시 북구 구포만세길 113,북구,35.206764,128.99797,https://www.visitbusan.net/uploadImgs/files/cntnts/20240911180908467_ttiel,,
busan-A-00161,AttractionService:2086:ko,busan_confirmed,attraction,AttractionService,5,5,ko|en|ja|zhs|zht,,"북두칠성도서관(한,영,중간,중번,일)",부산광역시 동구 충장대로 160 협성마리나G7 B동 1층 북두칠성도서관,동구,35.116432,129.04588,https://www.visitbusan.net/uploadImgs/files/cntnts/20240913175719812_ttiel,,
busan-A-00162,AttractionService:2095:ko,busan_confirmed,attraction,AttractionService,5,5,ko|en|ja|zhs|zht,,"송정 구덕포길(한,영,중간,중번,일)",부산광역시 해운대구 송정동,해운대구,35.169155,129.19722,https://www.visitbusan.net/uploadImgs/files/cntnts/20240920110953518_ttiel,,
busan-A-00163,AttractionService:2102:ko,busan_confirmed,attraction,AttractionService,5,5,ko|en|ja|zhs|zht,,"망양로 산복도로 전시관(한,영,중간,중번,일)",부산광역시 동구 망양로 488 3층,동구,35.117672,129.0332,https://www.visitbusan.net/uploadImgs/files/cntnts/20240923115623200_ttiel,,
busan-A-00164,AttractionService:2104:ko,busan_confirmed,attraction,AttractionService,5,5,ko|en|ja|zhs|zht,,"닥밭골 벽화마을(한,영,중간,중번,일)",부산광역시 서구 동대신동2가 87-218,서구,35.114338,129.02371,https://www.visitbusan.net/uploadImgs/files/cntnts/20240923142217173_ttiel,,
busan-A-00165,AttractionService:2105:ko,busan_confirmed,attraction,AttractionService,5,5,ko|en|ja|zhs|zht,,"대청스카이전망대(한,영,중간,중번,일)",부산광역시 중구 망양로 333,중구,35.107513,129.02963,https://www.visitbusan.net/uploadImgs/files/cntnts/20240923144618796_ttiel,,
busan-A-00166,AttractionService:2106:ko,same_place,attraction,AttractionService,5,6,ko|en|ja|zhs|zht,KorService2:3064931:ko,"색채마을(한,영,중간,중번,일)",부산광역시 중구 망양로327-1,중구,35.106995,129.02943,https://www.visitbusan.net/uploadImgs/files/cntnts/20240923150247468_ttiel,,
busan-A-00167,AttractionService:2119:ko,busan_confirmed,attraction,AttractionService,5,5,ko|en|ja|zhs|zht,,"뮤직컴플렉스 서울 부산점(한,영,중간,중번,일)",부산광역시 기장군 기장읍 동부산관광로 34 미식일상 1F 뮤직컴플렉스서울 부산점,기장군,35.193672,129.21411,https://www.visitbusan.net/uploadImgs/files/cntnts/20240926181328093_ttiel,,
busan-A-00168,AttractionService:2121:ko,same_place,attraction,AttractionService,6,7,ko|en|ja|zhs|zht|en,KorService2:1918263:ko,"누리마루 APEC하우스 (한,영,중간,중번,일)",부산광역시 해운대구 동백로 116 누리마루APEC하우스,해운대구,35.152336,129.15132,https://www.visitbusan.net/uploadImgs/files/cntnts/20241002101127462_ttiel,,
busan-A-00169,AttractionService:2133:ko,same_place,attraction,AttractionService,6,7,ko|en|ja|zhs|zht|en,KorService2:2822240:ko,"용호 별빛공원(한,영,중간,중번,일)","부산광역시 남구 분포로 66-40, 용호 별빛공원 (용호동)",남구,35.1328,129.12,https://www.visitbusan.net/uploadImgs/files/cntnts/20241017115549245_ttiel,,
busan-A-00170,AttractionService:2138:ko,busan_confirmed,attraction,AttractionService,5,5,ko|en|ja|zhs|zht,,"부산 워케이션 거점센터(한,영,중간,중번,일)",부산광역시 동구 중앙대로214번길 7-8 24층,동구,35.116238,129.04184,https://www.visitbusan.net/uploadImgs/files/cntnts/20241024114149701_ttiel,,
busan-A-00171,AttractionService:2139:ko,busan_confirmed,attraction,AttractionService,5,5,ko|en|ja|zhs|zht,,"더휴일X데스커 워케이션 센터(한,영,중간,중번,일)",부산광역시 영도구 대교로46번길 46 6층,영도구,35.095074,129.0427,https://www.visitbusan.net/uploadImgs/files/cntnts/20241024131843096_ttiel,,
busan-A-00172,AttractionService:2140:ko,busan_confirmed,attraction,AttractionService,5,5,ko|en|ja|zhs|zht,,"씨씨윗북 북스토어(한,영,중간,중번,일)",부산 영도구 흰여울길 99 씨씨윗북 북스토어,영도구,35.079052,129.04463,https://www.visitbusan.net/uploadImgs/files/cntnts/20241024113331184_ttiel,,
busan-A-00173,AttractionService:2143:ko,busan_confirmed,attraction,AttractionService,5,5,ko|en|ja|zhs|zht,,"패스파인더 남포점(한,영,중간,중번,일)",부산광역시 중구 광복중앙로 13 4층,중구,35.100525,129.03075,https://www.visitbusan.net/uploadImgs/files/cntnts/20241024144324691_ttiel,,
busan-A-00174,AttractionService:2145:ko,busan_confirmed,attraction,AttractionService,5,5,ko|en|ja|zhs|zht,,"도모헌(한,영,중간,중번,일)",부산광역시 수영구 황령산로7번길 60,수영구,35.147057,129.10724,https://www.visitbusan.net/uploadImgs/files/cntnts/20241025105526827_ttiel,,
busan-A-00175,AttractionService:2153:ko,same_place,attraction,AttractionService,5,6,ko|en|ja|zhs|zht,KorService2:130774:ko,"동삼동패총전시관(한,영,중간,중번,일)",부산광역시 영도구 태종로 729,영도구,35.07119,129.07968,https://www.visitbusan.net/uploadImgs/files/cntnts/20241029182913498_ttiel,,
busan-A-00176,AttractionService:2155:ko,busan_confirmed,attraction,AttractionService,5,5,ko|en|ja|zhs|zht,,"부산시민공원 역사문화관(한,영,중간,중번,일)",부산광역시 부산진구 시민공원로 73,부산진구,35.168602,129.05751,https://www.visitbusan.net/uploadImgs/files/cntnts/20241031151344958_ttiel,,
busan-A-00177,AttractionService:2157:ko,busan_confirmed,attraction,AttractionService,5,5,ko|en|ja|zhs|zht,,"다대포 바다누리길(한,영,중간,중번,일)",부산광역시 사하구 다대동 468-6 (다대포 바다누리길 광장),사하구,35.046967,128.96936,https://www.visitbusan.net/uploadImgs/files/cntnts/20241031180127634_ttiel,,
busan-A-00178,AttractionService:2166:ko,busan_confirmed,attraction,AttractionService,5,5,ko|en|ja|zhs|zht,,"광안리 골방(한,영,중간,중번,일)",부산광역시 수영구 민락본동로19번길 59 지하1층,수영구,35.157566,129.12578,https://www.visitbusan.net/uploadImgs/files/cntnts/20241108142157400_ttiel,,
busan-A-00179,AttractionService:2172:ko,busan_confirmed,attraction,AttractionService,5,5,ko|en|ja|zhs|zht,,"오시리아 해안 산책로(한,영,중간,중번,일)",부산광역시 기장군 기장읍 시랑리 62-22,기장군,35.198395,129.22993,https://www.visitbusan.net/uploadImgs/files/cntnts/20241107133504063_ttiel,,
busan-A-00180,AttractionService:2173:ko,busan_confirmed,attraction,AttractionService,5,5,ko|en|ja|zhs|zht,,"홍티아트센터(한,영,중간,중번,일)",부산 사하구 다산로 106번길 6 홍티아트센터,사하구,35.05365,128.95828,https://www.visitbusan.net/uploadImgs/files/cntnts/20241107142452622_ttiel,,
busan-A-00181,AttractionService:2186:ko,busan_confirmed,attraction,AttractionService,5,5,ko|en|ja|zhs|zht,,"일광 광산마을(한,영,중간,중번,일)",부산광역시 기장군 일광읍 원리 663-7,기장군,35.30874,129.22404,https://www.visitbusan.net/uploadImgs/files/cntnts/20241112125514341_ttiel,,
busan-A-00182,AttractionService:2187:ko,busan_confirmed,attraction,AttractionService,5,5,ko|en|ja|zhs|zht,,"부산항 제 1부두(한,영,중간,중번,일)",부산광역시 중구 중앙동 4가 15-33,중구,35.10498,129.04028,https://www.visitbusan.net/uploadImgs/files/cntnts/20241112141808956_ttiel,,
busan-A-00183,AttractionService:2188:ko,busan_confirmed,attraction,AttractionService,5,5,ko|en|ja|zhs|zht,,"유엔평화기념관(한,영,중간,중번,일)",부산광역시 남구 홍곡로320번길 106,남구,35.127697,129.09593,https://www.visitbusan.net/uploadImgs/files/cntnts/20241112150316938_ttiel,,
busan-A-00184,AttractionService:2189:ko,busan_confirmed,attraction,AttractionService,5,5,ko|en|ja|zhs|zht,,"명지 철새 탐조대(한,영,중간,중번,일)",부산 강서구 명지오션시티1로 284,강서구,35.084156,128.91174,https://www.visitbusan.net/uploadImgs/files/cntnts/20241113145816999_ttiel,,
busan-A-00185,AttractionService:2191:ko,busan_confirmed,attraction,AttractionService,5,5,ko|en|ja|zhs|zht,,"포디움다이브엠(한,영,중간,중번,일)",부산광역시 수영구 광남로 96,수영구,35.148014,129.11356,https://www.visitbusan.net/uploadImgs/files/cntnts/20241126144851008_ttiel,,
busan-A-00186,AttractionService:2200:ko,busan_confirmed,attraction,AttractionService,5,5,ko|en|ja|zhs|zht,,"갤러리 수정(한,영,중간,중번,일)",부산광역시 동구 수정공원남로 28 (수정아파트 4동 A408호),동구,35.12573,129.04266,https://www.visitbusan.net/uploadImgs/files/cntnts/20241202143950023_ttiel,,
busan-A-00187,AttractionService:2202:ko,same_place,attraction,AttractionService,5,6,ko|en|ja|zhs|zht,KorService2:2607423:ko,"이바구캠프(한,영,중간,중번,일)",부산광역시 동구 망양로525번길 22,중구,35.119175,129.0283,https://www.visitbusan.net/uploadImgs/files/cntnts/20241202150020813_ttiel,,
busan-A-00188,AttractionService:2204:ko,busan_confirmed,attraction,AttractionService,5,5,ko|en|ja|zhs|zht,,"디오티미술관(한,영,중간,중번,일)",부산광역시 금정구 금샘로 35,금정구,35.228886,129.07677,https://www.visitbusan.net/uploadImgs/files/cntnts/20241206140233984_ttiel,,
busan-A-00189,AttractionService:2206:ko,busan_confirmed,attraction,AttractionService,5,5,ko|en|ja|zhs|zht,,"오륜대 순교자 성지(한,영,중간,중번,일)",부산광역시 금정구 오륜대로 106-1,금정구,35.24589,129.10143,https://www.visitbusan.net/uploadImgs/files/cntnts/20241206151830093_ttiel,,
busan-A-00190,AttractionService:2210:ko,busan_confirmed,attraction,AttractionService,5,5,ko|en|ja|zhs|zht,,"갤러리 플레이리스트(한,영,중간,중번,일)",부산광역시 중구 대청로138번길 3 1층(용두산공원 공영주차장 주차),중구,35.102535,129.03517,https://www.visitbusan.net/uploadImgs/files/cntnts/20241206181644634_ttiel,,
busan-A-00191,AttractionService:2218:ko,same_place,attraction,AttractionService,5,6,ko|en|ja|zhs|zht,KorService2:3017347:ko,"영도해돋이전망대 (한,영,중간,중번,일)",부산광역시 영도구 해돋이3길 410-1,영도구,35.08908,129.05594,https://www.visitbusan.net/uploadImgs/files/cntnts/20241219102705213_ttiel,,
busan-A-00192,AttractionService:2220:ko,same_place,attraction,AttractionService,5,6,ko|en|ja|zhs|zht,KorService2:2775559:ko,"해광사(한,영,중간,중번,일)",부산광역시 기장군 기장읍 기장해안로 340,기장군,35.205593,129.22546,https://www.visitbusan.net/uploadImgs/files/cntnts/20241224115942076_ttiel,,
busan-A-00193,AttractionService:2229:ko,busan_confirmed,attraction,AttractionService,5,5,ko|en|ja|zhs|zht,,"륜 빌리지 (한,영,중간,중번,일)",부산광역시 금정구 오륜대로 262 륜 빌리지 Ryun Village,금정구,35.24763,129.11644,https://www.visitbusan.net/uploadImgs/files/cntnts/20250102170659652_ttiel,,
busan-A-00194,AttractionService:2237:ko,busan_confirmed,attraction,AttractionService,5,5,ko|en|ja|zhs|zht,,"내원정사(한,영,중간,중번,일)",부산광역시 서구 엄광산로40번길 80,서구,35.126575,129.01202,https://www.visitbusan.net/uploadImgs/files/cntnts/20250110143214904_ttiel,,
busan-A-00195,AttractionService:2239:ko,busan_confirmed,attraction,AttractionService,5,5,ko|en|ja|zhs|zht,,"홍법사(한,영,중간,중번,일)",부산광역시 금정구 두구로33번길 202 홍법사,금정구,35.30383,129.11041,https://www.visitbusan.net/uploadImgs/files/cntnts/20250110145605040_ttiel,,
busan-A-00196,AttractionService:2240:ko,busan_confirmed,attraction,AttractionService,5,5,ko|en|ja|zhs|zht,,"부산어린이대공원 치유의숲(한,영,중간,중번,일)",부산광역시 부산진구 새싹로 295,부산진구,35.185402,129.04234,https://www.visitbusan.net/uploadImgs/files/cntnts/20250110150900359_ttiel,,
busan-A-00197,AttractionService:2274:ko,busan_confirmed,attraction,AttractionService,5,5,ko|en|ja|zhs|zht,,"동백섬(한,영,중간,중번,일)",부산광역시 해운대구 우동 710-1,해운대구,35.15397,129.1523,https://www.visitbusan.net/uploadImgs/files/cntnts/20250207152914813_ttiel,,
busan-A-00198,AttractionService:2275:ko,busan_confirmed,attraction,AttractionService,5,5,ko|en|ja|zhs|zht,,"중사도(한,영,중간,중번,일)",부산광역시 강서구 식만동,중구,35.20947,128.91457,https://www.visitbusan.net/uploadImgs/files/cntnts/20250207155656641_ttiel,,
busan-A-00199,AttractionService:2284:ko,busan_confirmed,attraction,AttractionService,5,5,ko|en|ja|zhs|zht,,"모퉁이극장(한,영,중간,중번,일)",부산광역시 중구 광복중앙로 13 3층,중구,35.1006,129.0309,https://www.visitbusan.net/uploadImgs/files/cntnts/20250212112901695_ttiel,,
busan-A-00200,AttractionService:2288:ko,busan_confirmed,attraction,AttractionService,5,5,ko|en|ja|zhs|zht,,"영주맨션(한,영,중간,중번,일)","부산광역시 중구 영초길 51 9-다, 지하5호",중구,35.113503,129.03278,https://www.visitbusan.net/uploadImgs/files/cntnts/20250214183306081_ttiel,,
busan-A-00201,AttractionService:2299:ko,busan_confirmed,attraction,AttractionService,5,5,ko|en|ja|zhs|zht,,"황령산레포츠공원(한,영,중간,중번,일)",부산광역시 부산진구 진남로328번길 99,부산진구,35.15709,129.07631,https://www.visitbusan.net/uploadImgs/files/cntnts/20250306115823313_ttiel,,
busan-A-00202,AttractionService:2314:ko,busan_confirmed,attraction,AttractionService,5,5,ko|en|ja|zhs|zht,,"범어사 성보박물관(한,영,중간,중번,일)",부산광역시 금정구 범어사로 296,금정구,35.278435,129.0744,https://www.visitbusan.net/uploadImgs/files/cntnts/20250317141712864_ttiel,,
busan-A-00203,AttractionService:2408:ko,busan_confirmed,attraction,AttractionService,5,5,ko|en|ja|zhs|zht,,대룡마을,부산광역시 기장군 장안읍 대룡1길 17,기장군,35.370792,129.2628,https://www.visitbusan.net/uploadImgs/files/cntnts/20250620121122146_ttiel,,
busan-A-00204,AttractionService:2491:ko,busan_confirmed,attraction,AttractionService,5,5,ko|en|ja|zhs|zht,,"남포, 광복지하도상가",남포지하도상가: 부산광역시 중구 구덕로 지하44 (남포동5가) 광복지하도상가: 부산광역시 중구 중앙대로 29번길 8 (중앙동1가),중구,35.097282,129.02728,https://www.visitbusan.net/uploadImgs/files/cntnts/20250728122343276_ttiel,,
busan-A-00205,AttractionService:2551:ko,busan_confirmed,attraction,AttractionService,5,5,ko|en|ja|zhs|zht,,황령산봉수전망대,부산광역시 부산진구 전포동 산50-18,부산진구,35.157204,129.08163,https://www.visitbusan.net/uploadImgs/files/cntnts/20250826175032196_ttiel,,
busan-A-00206,AttractionService:2566:ko,busan_confirmed,attraction,AttractionService,5,5,ko|en|ja|zhs|zht,,1934 기차 동래역,부산 동래구 낙민로 28 구 동래역사,동래구,35.19779,129.09004,https://www.visitbusan.net/uploadImgs/files/cntnts/20250926164016872_ttiel,,
busan-A-00207,AttractionService:2587:ko,busan_confirmed,attraction,AttractionService,5,5,ko|en|ja|zhs|zht,,대항 어항동 방파제 등대,부산 강서구 대항동 393-3,강서구,35.011753,128.82515,https://www.visitbusan.net/uploadImgs/files/cntnts/20251020162135473_ttiel,,
busan-A-00208,AttractionService:2588:ko,busan_confirmed,attraction,AttractionService,5,5,ko|en|ja|zhs|zht,,충무동 해안시장,부산 서구 해안새벽시장길 7,서구,35.095985,129.0255,https://www.visitbusan.net/uploadImgs/files/cntnts/20251020171326961_ttiel,,
busan-A-00209,AttractionService:2594:ko,busan_confirmed,attraction,AttractionService,5,5,ko|en|ja|zhs|zht,,초량 이바구길,부산 동구 초량동 865-48,동구,35.11814,129.03362,https://www.visitbusan.net/uploadImgs/files/cntnts/20251024154312500_ttiel,,
busan-A-00210,AttractionService:2598:ko,busan_confirmed,attraction,AttractionService,5,5,ko|en|ja|zhs|zht,,고려제강기념관,부산 수영구 구락로141번길 63,수영구,35.177723,129.11348,https://www.visitbusan.net/uploadImgs/files/cntnts/20251029154155656_ttiel,,
busan-A-00211,AttractionService:2612:ko,busan_confirmed,attraction,AttractionService,5,5,ko|en|ja|zhs|zht,,회동수원지,부산 금정구 오륜동 352-3,금정구,35.245823,129.11913,https://www.visitbusan.net/uploadImgs/files/cntnts/20251121173217035_ttiel,,
busan-A-00212,AttractionService:2678:ko,busan_confirmed,attraction,AttractionService,5,5,ko|en|ja|zhs|zht,,리틀 프린스 하우스,부산광역시 사하구 감내1로 200(구 감내어울터),사하구,35.09775,129.00851,https://www.visitbusan.net/uploadImgs/files/cntnts/20260311171309981_ttiel,,
busan-A-00213,AttractionService:2753:ko,busan_unlinked,attraction,AttractionService,1,1,ko,,지그재그아트센터,부산 해운대구 달맞이길 30 엘시티 상가 포디움동 1001호,해운대구,35.161175,129.16803,https://www.visitbusan.net/uploadImgs/files/cntnts/20260609143205137_ttiel,,
busan-E-00001,FestivalService:71:ko,festival_confirmed,festival,FestivalService,5,5,ko|en|ja|zhs|zht,,"부산바다축제(한,영, 중간,중번,일)",,수영구,35.151604,129.11713,https://www.visitbusan.net/uploadImgs/files/cntnts/20191213191711585_ttiel,다대포 해수욕장 일원,2025. 8. 1. ~ 8. 3.
busan-E-00002,FestivalService:253:ko,festival_confirmed,festival,FestivalService,5,5,ko|en|ja|zhs|zht,,"수국축제(한,영,중간,중번,일)",부산광역시 영도구 전망로 119,영도구,35.05602,129.08812,https://www.visitbusan.net/uploadImgs/files/cntnts/20191222160520749_ttiel,"태종대, 태종사",2025. 7. 5.(토) ~ 7. 13.(일)
busan-E-00003,FestivalService:329:ko,festival_confirmed,festival,FestivalService,5,5,ko|en|ja|zhs|zht,,"센텀맥주축제(한,영,중간,중번,일)",부산광역시 해운대구 수영강변대로 120,해운대구,35.170998,129.12697,https://www.visitbusan.net/uploadImgs/files/cntnts/20191227114742493_ttiel,센텀맥주축제,2026. 05. 22. ~ 05. 31.
busan-E-00004,FestivalService:330:ko,festival_confirmed,festival,FestivalService,5,5,ko|en|ja|zhs|zht,,"금정산성축제(한,영,중간,중번,일)",부산광역시 금정구 산성로 501-2,금정구,35.23809,129.08815,https://www.visitbusan.net/uploadImgs/files/cntnts/20191227115551778_ttiel,금정산성축제,2026. 10. 16. ~ 10. 18.
busan-E-00005,FestivalService:331:ko,festival_confirmed,festival,FestivalService,5,5,ko|en|ja|zhs|zht,,"낙동강구포나루축제(한,영,중간,중번,일)",부산광역시 북구 화명생태공원 연꽃단지 일원,북구,35.22585,129.00346,https://www.visitbusan.net/uploadImgs/files/cntnts/20191227120157384_ttiel,낙동강구포나루축제,2025. 9. 26.(금) ~ 2025. 9. 28.(일)
busan-E-00006,FestivalService:395:ko,festival_confirmed,festival,FestivalService,5,5,ko|en|ja|zhs|zht,,"부산불꽃축제(한, 영, 중간, 중번, 일)",부산광역시 수영구 광안해변로 219,수영구,35.152725,129.11848,https://www.visitbusan.net/uploadImgs/files/cntnts/20241022165920388_ttiel,부산불꽃축제,2025.11.15.(토)매년 11월
busan-E-00007,FestivalService:403:ko,festival_confirmed,festival,FestivalService,5,5,ko|en|ja|zhs|zht,,"삼광사 연등축제(한,영,중간,중번,일)",부산광역시 부산진구 초읍천로43번길 77,부산진구,35.175694,129.04338,https://www.visitbusan.net/uploadImgs/files/cntnts/20230503134701548_ttiel,삼광사 연등축제,2026. 5. 15. ~  5. 24. 점등시간 매일 저녁 7시~새벽 1시
busan-E-00008,FestivalService:405:ko,festival_confirmed,festival,FestivalService,5,5,ko|en|ja|zhs|zht,,"해운대모래축제(한,영,중간,중번,일)","해운대해수욕장, 해운대광장(구남로) 일원",해운대구,35.158497,129.15985,https://www.visitbusan.net/uploadImgs/files/cntnts/20250512112542346_ttiel,해운대모래축제,2025.5.16.(금) ~ 5.19.(월) 모래조각전 6.8.(일)까지 전시
busan-E-00009,FestivalService:406:ko,festival_confirmed,festival,FestivalService,5,5,ko|en|ja|zhs|zht,,"부산항축제(한,영,중간,중번,일)",부산 동구 이순신대로 164,동구,35.114414,129.0464,https://www.visitbusan.net/uploadImgs/files/cntnts/20260422164844354_ttiel,,2026. 6. 19.(금) ~ 6. 20.(토)
busan-E-00010,FestivalService:407:ko,festival_confirmed,festival,FestivalService,5,5,ko|en|ja|zhs|zht,,"동래읍성 역사축제(한, 영, 중간, 중번, 일)",부산광역시 동래구 문화로 80,동래구,35.21127,129.09091,https://www.visitbusan.net/uploadImgs/files/cntnts/20191230193142955_ttiel,동래읍성 역사축제,2025.10.24. (금) ~ 2025.10.26. (일)
busan-E-00011,FestivalService:411:ko,festival_confirmed,festival,FestivalService,5,5,ko|en|ja|zhs|zht,,"부산자갈치축제(한,영,중간,중번,일)",부산광역시 중구 자갈치해안로 52,중구,35.096703,129.03058,https://www.visitbusan.net/uploadImgs/files/cntnts/20191230200521249_ttiel,부산자갈치축제,2025. 10. 23. ~ 10. 06.
busan-E-00012,FestivalService:414:ko,festival_confirmed,festival,FestivalService,5,5,ko|en|ja|zhs|zht,,"차이나타운특구 문화축제(한,영,중간,중번,일)",부산광역시 동구 대영로243번길 43,동구,35.11431,129.03809,https://www.visitbusan.net/uploadImgs/files/cntnts/20191230202600804_ttiel,부산차이나타운특구 문화축제,2025. 10. 17 ~ 10. 19.
busan-E-00013,FestivalService:427:ko,festival_confirmed,festival,FestivalService,5,5,ko|en|ja|zhs|zht,,"부산바다미술제(한,영,중간,중번,일)",부산 사하구 다대동,기장군,35.258884,129.23155,https://www.visitbusan.net/uploadImgs/files/cntnts/20231024143140221_ttiel,일광해수욕장,2025. 9. 27.(토) ~ 2025. 11. 2.(일)
busan-E-00014,FestivalService:440:ko,festival_confirmed,festival,FestivalService,5,5,ko|en|ja|zhs|zht,,"해운대 빛축제(한,영,중간,중번,일)",부산광역시 해운대구 해운대해변로 264,해운대구,35.15849,129.15987,https://www.visitbusan.net/uploadImgs/files/cntnts/20221227165437336_ttiel,"해운대해수욕장, 해운대광장(구남로), 해운대시장, 온천길 일원",2025년 11월 29일 ~ 2026년 1월 18일 점등시간 : 18:00~23:00
busan-E-00015,FestivalService:441:ko,festival_confirmed,festival,FestivalService,5,5,ko|en|ja|zhs|zht,,"기장미역다시마축제(한, 영, 중간, 중번, 일)",부산광역시 기장군 일광읍 이동항 일원,기장군,35.271782,129.2447,https://www.visitbusan.net/uploadImgs/files/cntnts/20191231114635471_ttiel,기장미역다시마축제,2026.04.17.~04.19.
busan-E-00016,FestivalService:442:ko,festival_confirmed,festival,FestivalService,5,5,ko|en|ja|zhs|zht,,"광안리어방축제(한,영,중간,중번,일)",부산광역시 수영구 광안해변로 219,수영구,35.153156,129.11893,https://www.visitbusan.net/uploadImgs/files/cntnts/20191231174925322_ttiel,광안리해변 및 수영사적공원 일원,2026. 06. 12. ~ 06. 14.
busan-E-00017,FestivalService:443:ko,festival_confirmed,festival,FestivalService,5,5,ko|en|ja|zhs|zht,,"기장멸치축제(한, 영, 중간, 중번, 일)",부산광역시 기장군 기장읍 대변항 일원,기장군,35.223377,129.23056,https://www.visitbusan.net/uploadImgs/files/cntnts/20191231175726016_ttiel,기장멸치축제,2026. 04. 24. ~ 04. 26.
busan-E-00018,FestivalService:449:ko,festival_confirmed,festival,FestivalService,5,5,ko|en|ja|zhs|zht,,"광복로 겨울빛 트리축제(한,영,중간,중번,일)",부산광역시 중구 광복로 58-2,중구,35.09927,129.03131,https://www.visitbusan.net/uploadImgs/files/cntnts/20221227174139947_ttiel,,2025.12.05(금) ~ 2026.02.22(일)
busan-E-00019,FestivalService:470:ko,festival_confirmed,festival,FestivalService,5,5,ko|en|ja|zhs|zht,,"부산국제록페스티벌(한,영, 중간,중번,일)",부산광역시 사상구 삼락동 29-46 삼락생태공원,사상구,35.168747,128.97238,https://www.visitbusan.net/uploadImgs/files/cntnts/20230913151940386_ttiel,부산국제록페스티벌,2025. 9. 26.(금) ~ 2025. 9. 28.(일)
busan-E-00020,FestivalService:497:ko,festival_confirmed,festival,FestivalService,5,5,ko|en|ja|zhs|zht,,"대저토마토축제(한, 영, 중간, 중번, 일)",부산광역시 강서구 체육공원로 43(강서체육공원),강서구,35.20922,128.97174,https://www.visitbusan.net/uploadImgs/files/cntnts/20200102115239175_ttiel,강서체육공원,2026. 3. 21. ~ 3. 22.
busan-E-00021,FestivalService:499:ko,festival_confirmed,festival,FestivalService,5,5,ko|en|ja|zhs|zht,,"낙동강 정원 벚꽃축제(한,영,중간,중번,일)","낙동제방 벚꽃길 일원, 르네시떼 야외무대",사상구,35.16549,128.97609,https://www.visitbusan.net/uploadImgs/files/cntnts/20200102120811862_ttiel,낙동강 정원 벚꽃축제,2026. 03. 27. ~ 04. 12.
busan-E-00022,FestivalService:500:ko,festival_confirmed,festival,FestivalService,5,5,ko|en|ja|zhs|zht,,"사상강변축제(한,영,중간,중번,일)",부산광역시 사상구 삼락생태공원,사상구,35.168854,128.97198,https://www.visitbusan.net/uploadImgs/files/cntnts/20200102124932671_ttiel,삼락생태공원 문화마당,2025년 9월 20일(토) ~ 9월 21일(일)
busan-E-00023,FestivalService:502:ko,festival_confirmed,festival,FestivalService,5,5,ko|en|ja|zhs|zht,,"해운대달맞이온천축제(한,영,중간,중번,일)",부산광역시 해운대구 해운대해변로 264,해운대구,35.1588,129.16136,https://www.visitbusan.net/uploadImgs/files/cntnts/20200102125938297_ttiel,해운대달맞이온천축제,2025.2.12매년 정월대보름
busan-E-00024,FestivalService:503:ko,festival_confirmed,festival,FestivalService,5,5,ko|en|ja|zhs|zht,,"해운대북극곰축제(한,영,중간,중번,일)",부산광역시 해운대구 해운대해변로 264,해운대구,35.158566,129.1598,https://www.visitbusan.net/uploadImgs/files/cntnts/20200102133625014_ttiel,해운대해수욕장,2026. 01. 17. ~ 01. 18.
busan-E-00025,FestivalService:523:ko,festival_confirmed,festival,FestivalService,5,5,ko|en|ja|zhs|zht,,"조선통신사축제(한,영,중간,중번,일)","북항친수공원, APEC하우스, 용호별빛공원, 범어사",중구,35.10072,129.03273,https://www.visitbusan.net/uploadImgs/files/cntnts/20200110115509318_ttiel,조선통신사축제,2025.4.25.(금) ~ 4.27.(일)
busan-E-00026,FestivalService:524:ko,festival_confirmed,festival,FestivalService,5,5,ko|en|ja|zhs|zht,,"부산국제영화제(한, 영, 중간, 중번, 일)",부산광역시 해운대구 수영강변대로 120(영화의 전당),해운대구,35.171078,129.12697,https://www.visitbusan.net/uploadImgs/files/cntnts/20200110131702589_ttiel,부산국제영화제,2025. 09. 17. (수) ~ 2025. 09. 26. (금)
busan-E-00027,FestivalService:531:ko,festival_confirmed,festival,FestivalService,5,5,ko|en|ja|zhs|zht,,"감천문화마을골목축제(한,영,중간,중번,일)",부산광역시 사하구 감내2로 203,사하구,35.095776,129.00931,https://www.visitbusan.net/uploadImgs/files/cntnts/20200110160422867_ttiel,감천문화마을 골목축제,2025. 10. 24. ~ 10. 25.
busan-E-00028,FestivalService:807:ko,festival_manual_review,festival,FestivalService,5,5,ko|en|ja|zhs|zht,,"부산푸드필름페스타(한, 영)",부산광역시 해운대구 수영강변대로 120,해운대구,35.17107,129.12698,https://www.visitbusan.net/uploadImgs/files/cntnts/20200701210502556_ttiel,부산푸드필름페스타,2026. 06. 26.(금) ~ 06. 28.(일)
busan-E-00029,FestivalService:1432:ko,festival_confirmed,festival,FestivalService,5,5,ko|en|ja|zhs|zht,,"부산연등회(한,영,중간,중번,일)",송상현광장 부산광역시 부산진구 중앙대로 지하 818 부산시민공원 부산광역시 부산진구 시민공원로 73,부산진구,35.166367,129.06589,https://www.visitbusan.net/uploadImgs/files/cntnts/20230517141710433_ttiel,"송상현광장, 부산시민공원",2026. 05. 01 ~ 05. 17.
busan-E-00030,FestivalService:1694:ko,festival_confirmed,festival,FestivalService,5,5,ko|en|ja|zhs|zht,,"부산수제맥주마스터스챌린지(한,영,중간,중번,일)",부산 해운대구 수영강변대로 120,해운대구,35.171036,129.1269,https://www.visitbusan.net/uploadImgs/files/cntnts/20230821115632607_ttiel,BEXCO 야외광장 일원,2025. 9. 20.(토) ~ 2025. 9. 24.(수)2025. 9. 20.(토) ~ 2025. 9. 24.(수)
busan-E-00031,FestivalService:1698:ko,festival_unlinked,festival,FestivalService,1,1,ko,,"나이트레이스 인 부산(한, 영, 중간, 중번, 일)",부산광역시 수영구 남천동,수영구,35.136974,129.11887,https://www.visitbusan.net/uploadImgs/files/cntnts/20230908145725673_ttiel,광안대교,2025년 8월 2일 (토)
busan-E-00032,FestivalService:1705:ko,festival_manual_review,festival,FestivalService,5,5,ko|en|ja|zhs|zht,,"별바다부산 나이트페스타(한)//영,중간,중번,일","부산광역시 중구, 북구, 사하구, 해운대구 일대",사하구,35.048126,128.96556,https://www.visitbusan.net/uploadImgs/files/cntnts/20240819181215659_ttiel,,2025.07. ~ 2025.10.
busan-E-00033,FestivalService:1807:ko,festival_unlinked,festival,FestivalService,1,1,ko,,부산국제마케팅광고제(한),"부산광역시 해운대구 달맞이길 30 (중동, 엘시티)",해운대구,35.1691,129.13634,https://www.visitbusan.net/uploadImgs/files/cntnts/20240416114016931_ttiel,,2025. 8. 27 ~ 8.29. / 상시운영
busan-E-00034,FestivalService:1897:ko,festival_confirmed,festival,FestivalService,5,5,ko|en|ja|zhs|zht,,부산국제어린이청소년영화제,부산광역시 해운대구 수영강변대로 120 (영화의전당),해운대구,35.171078,129.12706,https://www.visitbusan.net/uploadImgs/files/cntnts/20240625105125182_ttiel,영화의 전당,2025.7.8.(화) ~ 7.19.(토)
busan-E-00035,FestivalService:1961:ko,festival_unlinked,festival,FestivalService,1,1,ko,,2024 용두산 썸머 비치,부산 중구 용두산길 37-30,중구,35.10096,129.03246,https://www.visitbusan.net/uploadImgs/files/cntnts/20240801113323229_ttiel,용두산공원,"2024. 7. 27.(토) ~ 9. 21.(토), 매주 토요일 16:00 ~ 20:00"
busan-E-00036,FestivalService:2136:ko,festival_confirmed,festival,FestivalService,5,5,ko|en|ja|zhs|zht,,"서면 빛 축제(한,영,중간,중번,일)",부산 진구 부전동 서면 1번가 일원 (중앙대로 691번 길 및 서면로 일원),부산진구,35.15347,129.05841,https://www.visitbusan.net/uploadImgs/files/cntnts/20241021182231021_ttiel,,2024.10.02.수~2025.01.10.금
busan-E-00037,FestivalService:2368:ko,festival_confirmed,festival,FestivalService,5,5,ko|en|ja|zhs|zht,,2026 원아시아페스티벌(BOF),,해운대구,35.169167,129.13625,https://www.visitbusan.net/uploadImgs/files/cntnts/20250430144313591_ttiel,,Big CONCERT: 2026. 6. 27.(토) ~ 6. 28.(일) 13:00~21:00 PARK CONCERT: 6. 20(토) 18:00
busan-E-00038,FestivalService:2373:ko,festival_unlinked,festival,FestivalService,1,1,ko,,택슐랭,,중구,35.115173,129.04025,https://www.visitbusan.net/uploadImgs/files/cntnts/20250513184648656_ttiel,"부산역, 부산근현대역사관, 충무동 새벽시장, 유라리광장",2025. 5. 16.(금) ~ 5. 18.(일)
busan-E-00039,FestivalService:2383:ko,festival_confirmed,festival,FestivalService,5,5,ko|en|ja|zhs|zht,,부산콘서트홀 개관 페스티벌,부산광역시 진구 동평로250(연지동) 부산콘서트홀,부산진구,35.169422,129.0544,https://www.visitbusan.net/uploadImgs/files/cntnts/20250520203304478_ttiel,부산콘서트홀,2025. 6. 21.(토) ~ 6. 28.(토)
busan-E-00040,FestivalService:2730:ko,festival_confirmed,festival,FestivalService,2,2,ko|en,,김해공항 Welcome to Busan 환대 행사,부산광역시 강서구 공항진입로 108,강서구,35.172325,128.94685,https://www.visitbusan.net/uploadImgs/files/cntnts/20260601150158169_ttiel,김해공항 국제선 1층 도착장 GATE 1 앞,
busan-F-00001,FoodService:70:ko,busan_confirmed,food,FoodService,5,5,ko|en|ja|zhs|zht,,만드리곤드레밥,강서구 공항앞길 85번길 13,강서구,35.177387,128.95245,https://www.visitbusan.net/uploadImgs/files/cntnts/20191209162810545_ttiel,,
busan-F-00002,FoodService:72:ko,same_place,food,FoodService,5,6,ko|en|ja|zhs|zht,KorService2:2872611:ko,만호갈미샤브샤브,강서구 르노삼성대로 602,강서구,35.101425,128.92914,https://www.visitbusan.net/uploadImgs/files/cntnts/20250515120924874_ttiel,,
busan-F-00003,FoodService:77:ko,busan_confirmed,food,FoodService,5,5,ko|en|ja|zhs|zht,,민물가든,강서구 둔치중앙길5(봉림동),강서구,35.16055,128.89468,https://www.visitbusan.net/uploadImgs/files/cntnts/20191217101816206_ttiel,,
busan-F-00004,FoodService:83:ko,busan_confirmed,food,FoodService,5,5,ko|en|ja|zhs|zht,,부흥식당,영도구 절영로 104,영도구,35.085815,129.04071,https://www.visitbusan.net/uploadImgs/files/cntnts/20240418142402873_ttiel,,
busan-F-00005,FoodService:87:ko,same_place,food,FoodService,6,7,ko|en|ja|zhs|zht|en,KorService2:841730:ko,사미헌,부산진구 서면문화로 19,부산진구,35.159008,129.05666,https://www.visitbusan.net/uploadImgs/files/cntnts/20240417140858880_ttiel,,
busan-F-00006,FoodService:92:ko,busan_confirmed,food,FoodService,5,5,ko|en|ja|zhs|zht,,원조할매집,부산진구 골드테마길 10,부산진구,35.142147,129.06017,https://www.visitbusan.net/uploadImgs/files/cntnts/20240417143908074_ttiel,,
busan-F-00007,FoodService:94:ko,same_place,food,FoodService,5,6,ko|en|ja|zhs|zht,KorService2:849929:ko,가야할매밀면,부산 연제구 월드컵대로 145번길 32,연제구,35.185196,129.07988,https://www.visitbusan.net/uploadImgs/files/cntnts/20191217201857896_ttiel,,
busan-F-00008,FoodService:95:ko,busan_confirmed,food,FoodService,5,5,ko|en|ja|zhs|zht,,국제밀면본점,연제구 중앙대로1235번길 23-6,연제구,35.19689,129.07785,https://www.visitbusan.net/uploadImgs/files/cntnts/20240418134454110_ttiel,,
busan-F-00009,FoodService:102:ko,same_place,food,FoodService,5,6,ko|en|ja|zhs|zht,KorService2:686419:ko,할매가야밀면,중구 광복로 56-14,중구,35.098934,129.03122,https://www.visitbusan.net/uploadImgs/files/cntnts/20230605153300303_ttiel,,
busan-F-00010,FoodService:103:ko,busan_confirmed,food,FoodService,5,5,ko|en|ja|zhs|zht,,거인통닭,중구 중구로47번길34,중구,35.102345,129.02612,https://www.visitbusan.net/uploadImgs/files/cntnts/20240419092440105_ttiel,,
busan-F-00011,FoodService:107:ko,busan_confirmed,food,FoodService,5,5,ko|en|ja|zhs|zht,,김해식당,중구 자갈치로 51-2,중구,35.09748,129.02994,https://www.visitbusan.net/uploadImgs/files/cntnts/20230525160402713_ttiel,,
busan-F-00012,FoodService:109:ko,same_place,food,FoodService,5,6,ko|en|ja|zhs|zht,KorService2:132805:ko,물꽁식당,중구 흑교로59번길 3,중구,35.104504,129.0244,https://www.visitbusan.net/uploadImgs/files/cntnts/20240419094840707_ttiel,,
busan-F-00013,FoodService:112:ko,busan_confirmed,food,FoodService,5,5,ko|en|ja|zhs|zht,,부산명물횟집,중구 자갈치해안로 55,중구,35.09714,129.0312,https://www.visitbusan.net/uploadImgs/files/cntnts/20240419101804650_ttiel,,
busan-F-00014,FoodService:118:ko,same_place,food,FoodService,5,6,ko|en|ja|zhs|zht,KorService2:403957:ko,부산꼼장어맛집 성일집,중구 대교로 103,중구,35.099426,129.03749,https://www.visitbusan.net/uploadImgs/files/cntnts/20240419100256721_ttiel,,
busan-F-00015,FoodService:124:ko,same_place,food,FoodService,5,6,ko|en|ja|zhs|zht,KorService2:2836450:ko,이재모피자 본점,중구 광복중앙로 31,중구,35.102104,129.0306,https://www.visitbusan.net/uploadImgs/files/cntnts/20240419113018528_ttiel,,
busan-F-00016,FoodService:127:ko,busan_confirmed,food,FoodService,5,5,ko|en|ja|zhs|zht,,모모스커피,금정구 오시게로 20,금정구,35.21928,129.08643,https://www.visitbusan.net/uploadImgs/files/cntnts/20250515123503040_ttiel,,
busan-F-00017,FoodService:130:ko,busan_confirmed,food,FoodService,5,5,ko|en|ja|zhs|zht,,배비장보쌈구서본점,금정구 금정로 239,금정구,35.245174,129.09143,https://www.visitbusan.net/uploadImgs/files/cntnts/20230608145054469_ttiel,,
busan-F-00018,FoodService:138:ko,busan_confirmed,food,FoodService,5,5,ko|en|ja|zhs|zht,,장수장 꼬리곰탕,북구 사상로 577,북구,35.19576,128.99043,https://www.visitbusan.net/uploadImgs/files/cntnts/20230607170754019_ttiel,,
busan-F-00019,FoodService:141:ko,same_place,food,FoodService,5,6,ko|en|ja|zhs|zht,KorService2:2760771:ko,거대갈비,해운대구 달맞이길 22,해운대구,35.16155,129.16693,https://www.visitbusan.net/uploadImgs/files/cntnts/20240419125908808_ttiel,,
busan-F-00020,FoodService:146:ko,same_place,food,FoodService,5,6,ko|en|ja|zhs|zht,KorService2:2778487:ko,금수복국 해운대본점,해운대구 중동1로 43번길23,해운대구,35.16243,129.1645,https://www.visitbusan.net/uploadImgs/files/cntnts/20240419130448560_ttiel,,
busan-F-00021,FoodService:152:ko,busan_confirmed,food,FoodService,5,5,ko|en|ja|zhs|zht,,다온 한정식,부산 해운대구 해운대해변로 154 마리나동원8층,해운대구,35.158123,129.14853,https://www.visitbusan.net/uploadImgs/files/cntnts/20191219100305084_ttiel,,
busan-F-00022,FoodService:154:ko,same_place,food,FoodService,5,6,ko|en|ja|zhs|zht,KorService2:135827:ko,동백섬횟집,해운대구 해운대해변로209번나길 17,해운대구,35.160427,129.15468,https://www.visitbusan.net/uploadImgs/files/cntnts/20240419134206865_ttiel,,
busan-F-00023,FoodService:156:ko,busan_confirmed,food,FoodService,5,5,ko|en|ja|zhs|zht,,르꽁비브,해운대구 센텀북대로 60 센텀아이에스타워 110호,해운대구,35.176777,129.12552,https://www.visitbusan.net/uploadImgs/files/cntnts/20191219101750249_ttiel,,
busan-F-00024,FoodService:158:ko,busan_confirmed,food,FoodService,5,5,ko|en|ja|zhs|zht,,파니니브런치본점,사상구 엄궁남로 15,사상구,35.12544,128.96982,https://www.visitbusan.net/uploadImgs/files/cntnts/20230531123640913_ttiel,,
busan-F-00025,FoodService:163:ko,busan_confirmed,food,FoodService,5,5,ko|en|ja|zhs|zht,,문스시,부산 해운대구 좌동순환로 43,해운대구,35.17031,129.16615,https://www.visitbusan.net/uploadImgs/files/cntnts/20200818130348030_ttiel,,
busan-F-00026,FoodService:164:ko,busan_confirmed,food,FoodService,5,5,ko|en|ja|zhs|zht,,할매재첩국집,사상구 낙동대로1530번길 20-15,사상구,35.193363,128.98607,https://www.visitbusan.net/uploadImgs/files/cntnts/20230608100341246_ttiel,,
busan-F-00027,FoodService:166:ko,same_place,food,FoodService,5,6,ko|en|ja|zhs|zht,KorService2:1310148:ko,예이제,부산 해운대구 해운대해변로298번길 29 해운대푸르지오시티 2층,해운대구,35.16123,129.16664,https://www.visitbusan.net/uploadImgs/files/cntnts/20240419174000260_ttiel,,
busan-F-00028,FoodService:167:ko,busan_confirmed,food,FoodService,5,5,ko|en|ja|zhs|zht,,합천일류돼지국밥,사상구 광장로 34,사상구,35.16191,128.98045,https://www.visitbusan.net/uploadImgs/files/cntnts/20230605170838962_ttiel,,
busan-F-00029,FoodService:169:ko,same_place,food,FoodService,5,6,ko|en|ja|zhs|zht,KorService2:2875761:ko,원조석대추어탕,부산 해운대구 반송로 571번길 5,해운대구,35.2195,129.12512,https://www.visitbusan.net/uploadImgs/files/cntnts/20191219104936271_ttiel,,
busan-F-00030,FoodService:174:ko,busan_confirmed,food,FoodService,5,5,ko|en|ja|zhs|zht,,웨이브온커피,기장군 장안읍 해맞이로 286,기장군,35.32225,129.26979,https://www.visitbusan.net/uploadImgs/files/cntnts/20240416143124508_ttiel,,
busan-F-00031,FoodService:177:ko,busan_confirmed,food,FoodService,5,5,ko|en|ja|zhs|zht,,대티물꽁,사하구 낙동대로 135번안길15,사하구,35.10239,129.00041,https://www.visitbusan.net/uploadImgs/files/cntnts/20240417163511863_ttiel,,
busan-F-00032,FoodService:184:ko,same_place,food,FoodService,5,6,ko|en|ja|zhs|zht,KorService2:2867662:ko,원조18번완당,서구 구덕로 238번길 6,서구,35.105713,129.02045,https://www.visitbusan.net/uploadImgs/files/cntnts/20240418090456625_ttiel,,
busan-F-00033,FoodService:190:ko,same_place,food,FoodService,6,7,ko|en|ja|zhs|zht|en,KorService2:851989:ko,할매복국,달맞이길62번길 1,해운대구,35.160915,129.17152,https://www.visitbusan.net/uploadImgs/files/cntnts/20191219134018171_ttiel,,
busan-F-00034,FoodService:193:ko,busan_confirmed,food,FoodService,5,5,ko|en|ja|zhs|zht,,젠스시,해운대구 대천로42번길28-5,해운대구,35.170803,129.17145,https://www.visitbusan.net/uploadImgs/files/cntnts/20240422090815838_ttiel,,
busan-F-00035,FoodService:198:ko,same_place,food,FoodService,5,6,ko|en|ja|zhs|zht,KorService2:2838382:ko,신창국밥 본점,서구 보수대로 53,서구,35.10093,129.02254,https://www.visitbusan.net/uploadImgs/files/cntnts/20240417173744613_ttiel,,
busan-F-00036,FoodService:200:ko,busan_confirmed,food,FoodService,5,5,ko|en|ja|zhs|zht,,옛날오막집,서구 구덕로274번길 14,서구,35.108913,129.0199,https://www.visitbusan.net/uploadImgs/files/cntnts/20240418090136482_ttiel,,
busan-F-00037,FoodService:201:ko,busan_confirmed,food,FoodService,5,5,ko|en|ja|zhs|zht,,평안도족발,부산 해운대구 달맞이길 14,해운대구,35.161945,129.16637,https://www.visitbusan.net/uploadImgs/files/cntnts/20191219141936064_ttiel,,
busan-F-00038,FoodService:203:ko,busan_confirmed,food,FoodService,5,5,ko|en|ja|zhs|zht,,한우숯불양곱창,부산 해운대구 해운대해변로 385,해운대구,35.165897,129.17079,https://www.visitbusan.net/uploadImgs/files/cntnts/20200819165333332_ttiel,,
busan-F-00039,FoodService:204:ko,same_place,food,FoodService,4,5,ko|en|ja|zhs,KorService2:2759609:ko,쌍둥이돼지국밥 본점,남구 유엔평화로 35-1,남구,35.13177,129.0923,https://www.visitbusan.net/uploadImgs/files/cntnts/20230607155733028_ttiel,,
busan-F-00040,FoodService:208:ko,same_place,food,FoodService,5,6,ko|en|ja|zhs|zht,KorService2:2809068:ko,국이네낙지볶음,수영구 연수로 410,수영구,35.168022,129.11382,https://www.visitbusan.net/uploadImgs/files/cntnts/20240418103113463_ttiel,,
busan-F-00041,FoodService:212:ko,busan_confirmed,food,FoodService,5,5,ko|en|ja|zhs|zht,,베지나랑,수영구 광안해변로370번길 9-32 노블스카이 9층,수영구,35.156757,129.13426,https://www.visitbusan.net/uploadImgs/files/cntnts/20230608142501309_ttiel,,
busan-F-00042,FoodService:214:ko,busan_confirmed,food,FoodService,5,5,ko|en|ja|zhs|zht,,광안리신라횟집,수영구 민락수변로7번길 16 2층~4층,수영구,35.155254,129.12456,https://www.visitbusan.net/uploadImgs/files/cntnts/20230523145317638_ttiel,,
busan-F-00043,FoodService:215:ko,busan_confirmed,food,FoodService,5,5,ko|en|ja|zhs|zht,,이층집 564-9,"남구 유엔로217, 2층(대연동)",남구,35.13028,129.10002,https://www.visitbusan.net/uploadImgs/files/cntnts/20191219153031872_ttiel,,
busan-F-00044,FoodService:218:ko,busan_confirmed,food,FoodService,5,5,ko|en|ja|zhs|zht,,초원복국,남구 황령대로492번길 30,남구,35.137794,129.10591,https://www.visitbusan.net/uploadImgs/files/cntnts/20240416153630841_ttiel,,
busan-F-00045,FoodService:234:ko,busan_confirmed,food,FoodService,5,5,ko|en|ja|zhs|zht,,석화한정식,부산광역시 동구 조방로 21,동구,35.13881,129.06189,https://www.visitbusan.net/uploadImgs/files/cntnts/20220513092736141_ttiel,,
busan-F-00046,FoodService:235:ko,busan_confirmed,food,FoodService,5,5,ko|en|ja|zhs|zht,,내당,동래구 금강공원로 20번길 23 호텔농심 별관,동래구,35.219814,129.08208,https://www.visitbusan.net/uploadImgs/files/cntnts/20240417092928274_ttiel,,
busan-F-00047,FoodService:239:ko,busan_confirmed,food,FoodService,5,5,ko|en|ja|zhs|zht,,봉식당,부산 동래구 온천장로119번길 26,동래구,35.221752,129.08357,https://www.visitbusan.net/uploadImgs/files/cntnts/20240417103325942_ttiel,,
busan-F-00048,FoodService:242:ko,same_place,food,FoodService,5,6,ko|en|ja|zhs|zht,KorService2:2832671:ko,신발원,부산 동구 대영로243번길62,동구,35.114815,129.03873,https://www.visitbusan.net/uploadImgs/files/cntnts/20191220111654951_ttiel,,
busan-F-00049,FoodService:245:ko,same_place,food,FoodService,5,6,ko|en|ja|zhs|zht,KorService2:2838849:ko,초량1941,동구 망양로 533-5,동구,35.11969,129.02942,https://www.visitbusan.net/uploadImgs/files/cntnts/20230601112526719_ttiel,,
busan-F-00050,FoodService:246:ko,busan_confirmed,food,FoodService,5,5,ko|en|ja|zhs|zht,,60년 전통 할매국밥,동구 중앙대로533번길 4,동구,35.141018,129.05618,https://www.visitbusan.net/uploadImgs/files/cntnts/20240416171620563_ttiel,,
busan-F-00051,FoodService:252:ko,busan_confirmed,food,FoodService,5,5,ko|en|ja|zhs|zht,,함경면옥,부산광역시 동래구 온천장로 64 1층,동래구,35.216976,129.08171,https://www.visitbusan.net/uploadImgs/files/cntnts/20220512102852754_ttiel,,
busan-F-00052,FoodService:564:ko,same_place,food,FoodService,5,6,ko|en|ja|zhs|zht,KorService2:849887:ko,김유순대구뽈찜,남구 진남로15,남구,35.136368,129.09152,https://www.visitbusan.net/uploadImgs/files/cntnts/20230525155402064_ttiel,,
busan-F-00053,FoodService:566:ko,busan_confirmed,food,FoodService,5,5,ko|en|ja|zhs|zht,,백산키친,동구 조방로14 동일타워,동구,35.13873,129.06345,https://www.visitbusan.net/uploadImgs/files/cntnts/20240416172624208_ttiel,,
busan-F-00054,FoodService:576:ko,busan_confirmed,food,FoodService,5,5,ko|en|ja|zhs|zht,,왔다식당,영도구 하나길 811,영도구,35.094036,129.05635,https://www.visitbusan.net/uploadImgs/files/cntnts/20240418143145988_ttiel,,
busan-F-00055,FoodService:577:ko,busan_confirmed,food,FoodService,5,5,ko|en|ja|zhs|zht,,영변횟집,부산 해운대구 송정강변로 15,해운대구,35.1808,129.20293,https://www.visitbusan.net/uploadImgs/files/cntnts/20200818134302422_ttiel,,
busan-F-00056,FoodService:865:ko,same_place,food,FoodService,5,6,ko|en|ja|zhs|zht,KorService2:2840921:ko,방코,"강서구 새진목길 51, 1,2층",강서구,35.11546,128.92226,https://www.visitbusan.net/uploadImgs/files/cntnts/20240415163345618_ttiel,,
busan-F-00057,FoodService:872:ko,busan_confirmed,food,FoodService,5,5,ko|en|ja|zhs|zht,,구포촌국수,부산 금정구 금샘로 490,금정구,35.266575,129.08475,https://www.visitbusan.net/uploadImgs/files/cntnts/20240415175213819_ttiel,,
busan-F-00058,FoodService:877:ko,busan_confirmed,food,FoodService,5,5,ko|en|ja|zhs|zht,,얼크니손칼국수,부산 기장군 기장읍 차성로 417번길 22,기장군,35.255756,129.21614,https://www.visitbusan.net/uploadImgs/files/cntnts/20200819144753937_ttiel,,
busan-F-00059,FoodService:884:ko,same_place,food,FoodService,5,6,ko|en|ja|zhs|zht,KorService2:2775543:ko,탐복,부산 기장군 일광읍 문오성길 31,기장군,35.282757,129.25768,https://www.visitbusan.net/uploadImgs/files/cntnts/20240416144911943_ttiel,,
busan-F-00060,FoodService:886:ko,busan_confirmed,food,FoodService,5,5,ko|en|ja|zhs|zht,,곤국,부산 남구 황령대로74번길 51-1 1층,남구,35.1477,129.06758,https://www.visitbusan.net/uploadImgs/files/cntnts/20200819150211450_ttiel,,
busan-F-00061,FoodService:887:ko,busan_confirmed,food,FoodService,5,5,ko|en|ja|zhs|zht,,다이닝센 부산본점,"부산 남구 용호로 88 3층,4층",남구,35.124435,129.11235,https://www.visitbusan.net/uploadImgs/files/cntnts/20200820090928003_ttiel,,
busan-F-00062,FoodService:890:ko,busan_confirmed,food,FoodService,5,5,ko|en|ja|zhs|zht,,오륙도 가원,남구 백운포로 14,남구,35.106773,129.11171,https://www.visitbusan.net/uploadImgs/files/cntnts/20230603134954264_ttiel,,
busan-F-00063,FoodService:893:ko,busan_confirmed,food,FoodService,5,5,ko|en|ja|zhs|zht,,해남식당 부산용호동W스퀘어점,"부산광역시 남구 분포로 145 1072,1073호(용호동, 더블유)",남구,35.134193,129.11122,https://www.visitbusan.net/uploadImgs/files/cntnts/20200818153601185_ttiel,,
busan-F-00064,FoodService:899:ko,busan_confirmed,food,FoodService,4,4,ko|en|ja|zhs,,범일빈대떡,동구 중앙대로 519,동구,35.139576,129.05621,https://www.visitbusan.net/uploadImgs/files/cntnts/20250515155412591_ttiel,,
busan-F-00065,FoodService:904:ko,same_place,food,FoodService,5,6,ko|en|ja|zhs|zht,KorService2:2852685:ko,금강만두,부산 동래구 사직북로5번길 11,동래구,35.196102,129.06027,https://www.visitbusan.net/uploadImgs/files/cntnts/20230607173727769_ttiel,,
busan-F-00066,FoodService:917:ko,busan_confirmed,food,FoodService,5,5,ko|en|ja|zhs|zht,,석화정,영도구 동삼로 42번길 16-11,영도구,35.07709,129.07228,https://www.visitbusan.net/uploadImgs/files/cntnts/20230608114815119_ttiel,,
busan-F-00067,FoodService:920:ko,same_place,food,FoodService,5,6,ko|en|ja|zhs|zht,KorService2:2836412:ko,에테르,부산 영도구 절영로 234,영도구,35.077286,129.04646,https://www.visitbusan.net/uploadImgs/files/cntnts/20240418142653242_ttiel,,
busan-F-00068,FoodService:926:ko,same_place,food,FoodService,5,6,ko|en|ja|zhs|zht,KorService2:2759629:ko,디저트시네마,부산 연제구 쌍미천로 32-1,연제구,35.176273,129.09052,https://www.visitbusan.net/uploadImgs/files/cntnts/20240418140108273_ttiel,,
busan-F-00069,FoodService:928:ko,busan_confirmed,food,FoodService,5,5,ko|en|ja|zhs|zht,,북경,부산 연제구 중앙대로 1076번길 11,연제구,35.18377,129.08086,https://www.visitbusan.net/uploadImgs/files/cntnts/20200819172514790_ttiel,,
busan-F-00070,FoodService:929:ko,same_place,food,FoodService,5,6,ko|en|ja|zhs|zht,KorService2:2867674:ko,연산낙지해물탕,부산 연제구 과정로 121,연제구,35.182316,129.10692,https://www.visitbusan.net/uploadImgs/files/cntnts/20200819103408604_ttiel,,
busan-F-00071,FoodService:933:ko,busan_confirmed,food,FoodService,5,5,ko|en|ja|zhs|zht,,옻바다전복삼계탕,부산 연제구 월드컵대로 119번길 16,연제구,35.18473,129.08128,https://www.visitbusan.net/uploadImgs/files/cntnts/20200819105118416_ttiel,,
busan-F-00072,FoodService:936:ko,same_place,food,FoodService,5,6,ko|en|ja|zhs|zht,KorService2:133314:ko,팔미초밥,부산 연제구 월드컵대로 119번길 8,연제구,35.184906,129.0818,https://www.visitbusan.net/uploadImgs/files/cntnts/20200819110257649_ttiel,,
busan-F-00073,FoodService:942:ko,busan_confirmed,food,FoodService,5,5,ko|en|ja|zhs|zht,,다리집 본점,수영구 남천바다로10번길 70 101호,수영구,35.146637,129.11076,https://www.visitbusan.net/uploadImgs/files/cntnts/20200819112147736_ttiel,,
busan-F-00074,FoodService:944:ko,busan_confirmed,food,FoodService,5,5,ko|en|ja|zhs|zht,,남촌,북구 금곡대로8번길 14,북구,35.21074,129.00595,https://www.visitbusan.net/uploadImgs/files/cntnts/20240417155301384_ttiel,,
busan-F-00075,FoodService:949:ko,busan_confirmed,food,FoodService,5,5,ko|en|ja|zhs|zht,,북경의자전거,부산광역시 북구 용당로5번길 14,북구,35.230934,129.00957,https://www.visitbusan.net/uploadImgs/files/cntnts/20200820091146813_ttiel,,
busan-F-00076,FoodService:950:ko,busan_confirmed,food,FoodService,5,5,ko|en|ja|zhs|zht,,광안리 언양불고기 부산집,부산 수영구 남천바다로 32,수영구,35.1479,129.11357,https://www.visitbusan.net/uploadImgs/files/cntnts/20240418102343022_ttiel,,
busan-F-00077,FoodService:953:ko,busan_confirmed,food,FoodService,5,5,ko|en|ja|zhs|zht,,식당 3선 덕천점,부산 북구 금곡대로 112,북구,35.21927,129.00708,https://www.visitbusan.net/uploadImgs/files/cntnts/20200819154140644_ttiel,,
busan-F-00078,FoodService:958:ko,busan_confirmed,food,FoodService,5,5,ko|en|ja|zhs|zht,,함경면옥 덕천점,부산 북구 금곡대로 21,북구,35.21178,129.00423,https://www.visitbusan.net/uploadImgs/files/cntnts/20200820091029413_ttiel,,
busan-F-00079,FoodService:959:ko,busan_confirmed,food,FoodService,5,5,ko|en|ja|zhs|zht,,홍옥당,부산 수영구 남천동로 108번길 49,수영구,35.146893,129.11392,https://www.visitbusan.net/uploadImgs/files/cntnts/20230531122205481_ttiel,,
busan-F-00080,FoodService:960:ko,busan_confirmed,food,FoodService,5,5,ko|en|ja|zhs|zht,,디에이블 송도점,부산 서구 충무대로 47 3층,서구,35.076706,129.01715,https://www.visitbusan.net/uploadImgs/files/cntnts/20200819132345743_ttiel,,
busan-F-00081,FoodService:961:ko,same_place,food,FoodService,5,6,ko|en|ja|zhs|zht,KorService2:2852419:ko,몽실종가돼지국밥 감천문화마을 본점,"서구 까치고개로 197번길 3, 1층",서구,35.10019,129.01718,https://www.visitbusan.net/uploadImgs/files/cntnts/20240417173451717_ttiel,,
busan-F-00082,FoodService:963:ko,busan_confirmed,food,FoodService,5,5,ko|en|ja|zhs|zht,,식당 토성동,부산 서구 구덕로 124번길 27,서구,35.097954,129.02257,https://www.visitbusan.net/uploadImgs/files/cntnts/20200819133843312_ttiel,,
busan-F-00083,FoodService:964:ko,busan_confirmed,food,FoodService,5,5,ko|en|ja|zhs|zht,,청죽,부산 서구 망양로 23,서구,35.11293,129.01305,https://www.visitbusan.net/uploadImgs/files/cntnts/20200819134238418_ttiel,,
busan-F-00084,FoodService:965:ko,busan_confirmed,food,FoodService,5,5,ko|en|ja|zhs|zht,,편의방,서구 대신공원로 13-5,서구,35.11915,129.01625,https://www.visitbusan.net/uploadImgs/files/cntnts/20240418091306849_ttiel,,
busan-F-00085,FoodService:966:ko,same_place,food,FoodService,5,6,ko|en|ja|zhs|zht,KorService2:2870868:ko,동원장수촌,사하구 동매로 117 건우리안 상가 B 201호,사하구,35.10194,128.97113,https://www.visitbusan.net/uploadImgs/files/cntnts/20230607132213312_ttiel,,
busan-F-00086,FoodService:969:ko,busan_confirmed,food,FoodService,5,5,ko|en|ja|zhs|zht,,포항가자미물회국수말이전문점,부산광역시 사상구 사상로 275-1,사상구,35.169525,128.98228,https://www.visitbusan.net/uploadImgs/files/cntnts/20200819143114772_ttiel,,
busan-F-00087,FoodService:974:ko,busan_confirmed,food,FoodService,5,5,ko|en|ja|zhs|zht,,괘법쭈꾸미전문점,부산 사상구 광장로81번길 33,사상구,35.163906,128.98459,https://www.visitbusan.net/uploadImgs/files/cntnts/20200819161305335_ttiel,,
busan-F-00088,FoodService:1065:ko,busan_unlinked,food,FoodService,1,1,ko,,삼진어묵 본점,부산시 영도구 태종로99번길 36,영도구,35.092953,129.04279,https://www.visitbusan.net/uploadImgs/files/cntnts/20210415134915004_ttiel,,
busan-F-00089,FoodService:1092:ko,same_place,food,FoodService,5,6,ko|en|ja|zhs|zht,KorService2:2805377:ko,광명집,남구 신선로 458,남구,35.125664,129.10095,https://www.visitbusan.net/uploadImgs/files/cntnts/20250515142651174_ttiel,,
busan-F-00090,FoodService:1094:ko,same_place,food,FoodService,5,6,ko|en|ja|zhs|zht,KorService2:2752976:ko,명지첫집 국제신도시본점,강서구 명지국제6로232번길 18,강서구,35.095818,128.92444,https://www.visitbusan.net/uploadImgs/files/cntnts/20230607165446819_ttiel,,
busan-F-00091,FoodService:1099:ko,busan_confirmed,food,FoodService,5,5,ko|en|ja|zhs|zht,,명품외식 육면정,남구 황령대로 329,남구,35.148415,129.09482,https://www.visitbusan.net/uploadImgs/files/cntnts/20210913100010495_ttiel,,
busan-F-00092,FoodService:1100:ko,busan_confirmed,food,FoodService,5,5,ko|en|ja|zhs|zht,,호포갈비 문현점,남구 우암로 359,남구,35.13401,129.06631,https://www.visitbusan.net/uploadImgs/files/cntnts/20230601215049360_ttiel,,
busan-F-00093,FoodService:1104:ko,busan_confirmed,food,FoodService,5,5,ko|en|ja|zhs|zht,,평산옥,동구 초량중로 26,동구,35.114292,129.0371,https://www.visitbusan.net/uploadImgs/files/cntnts/20210913104329974_ttiel,,
busan-F-00094,FoodService:1106:ko,busan_confirmed,food,FoodService,5,5,ko|en|ja|zhs|zht,,공감식당,부산진구 동평로 81,부산진구,35.16551,129.03838,https://www.visitbusan.net/uploadImgs/files/cntnts/20210913110103549_ttiel,,
busan-F-00095,FoodService:1107:ko,busan_confirmed,food,FoodService,5,5,ko|en|ja|zhs|zht,,다옴 서면 삼정타워점,"부산진구 중앙대로 672, 삼정타워 5층",부산진구,35.152874,129.05957,https://www.visitbusan.net/uploadImgs/files/cntnts/20210913110833421_ttiel,,
busan-F-00096,FoodService:1108:ko,busan_confirmed,food,FoodService,5,5,ko|en|ja|zhs|zht,,당감밀면,부산진구 당감로 5 삼익아파트상가 B동 1층,부산진구,35.162247,129.03975,https://www.visitbusan.net/uploadImgs/files/cntnts/20210913111405621_ttiel,,
busan-F-00097,FoodService:1110:ko,busan_confirmed,food,FoodService,5,5,ko|en|ja|zhs|zht,,버거샵 서면,부산진구 동천로 108번길 11,부산진구,35.15856,129.06306,https://www.visitbusan.net/uploadImgs/files/cntnts/20210913112340644_ttiel,,
busan-F-00098,FoodService:1111:ko,busan_confirmed,food,FoodService,5,5,ko|en|ja|zhs|zht,,소수인,부산진구 가야대로750번길 17,부산진구,35.156677,129.05383,https://www.visitbusan.net/uploadImgs/files/cntnts/20250523160110075_ttiel,,
busan-F-00099,FoodService:1117:ko,busan_confirmed,food,FoodService,5,5,ko|en|ja|zhs|zht,,양평칼국수 본점,사하구 다대로 680-1,사하구,35.048454,128.967,https://www.visitbusan.net/uploadImgs/files/cntnts/20210913114940489_ttiel,,
busan-F-00100,FoodService:1118:ko,same_place,food,FoodService,5,6,ko|en|ja|zhs|zht,KorService2:2785266:ko,영진돼지국밥 본점,사하구 하신번영로157번길 39,사하구,35.09664,128.95784,https://www.visitbusan.net/uploadImgs/files/cntnts/20240417165519984_ttiel,,
busan-F-00101,FoodService:1121:ko,busan_confirmed,food,FoodService,5,5,ko|en|ja|zhs|zht,,신흥반점,서구 충무대로 284-1,서구,35.09595,129.02463,https://www.visitbusan.net/uploadImgs/files/cntnts/20210913133410983_ttiel,,
busan-F-00102,FoodService:1132:ko,busan_confirmed,food,FoodService,5,5,ko|en|ja|zhs|zht,,동원숯불갈비,연제구 과정로276번길 9,연제구,35.188595,129.09715,https://www.visitbusan.net/uploadImgs/files/cntnts/20210913141552746_ttiel,,
busan-F-00103,FoodService:1133:ko,busan_confirmed,food,FoodService,5,5,ko|en|ja|zhs|zht,,도날드,영도구 꿈나무길 267(1층),영도구,35.085815,129.04295,https://www.visitbusan.net/uploadImgs/files/cntnts/20240418141930357_ttiel,,
busan-F-00104,FoodService:1135:ko,busan_confirmed,food,FoodService,5,5,ko|en|ja|zhs|zht,,영도우,영도구 조내기로5번길 2,영도구,35.08781,129.06128,https://www.visitbusan.net/uploadImgs/files/cntnts/20210913152113856_ttiel,,
busan-F-00105,FoodService:1136:ko,busan_confirmed,food,FoodService,5,5,ko|en|ja|zhs|zht,,함흥보쌈사계절냉면,영도구 남항로 42,영도구,35.08845,129.04108,https://www.visitbusan.net/uploadImgs/files/cntnts/20210913152733413_ttiel,,
busan-F-00106,FoodService:1137:ko,busan_confirmed,food,FoodService,5,5,ko|en|ja|zhs|zht,,원산면옥,중구 광복로 56-8,중구,35.098976,129.03105,https://www.visitbusan.net/uploadImgs/files/cntnts/20240419110909568_ttiel,,
busan-F-00107,FoodService:1138:ko,busan_confirmed,food,FoodService,5,5,ko|en|ja|zhs|zht,,개미집신도시점,해운대구 좌동로 10번길 51-5,해운대구,35.167637,129.17154,https://www.visitbusan.net/uploadImgs/files/cntnts/20210913153737388_ttiel,,
busan-F-00108,FoodService:1219:ko,same_place,food,FoodService,5,6,ko|en|ja|zhs|zht,KorService2:2840998:ko,오리한상 명지본점,"명지국제9로 66, 지봉빌딩 2층",강서구,35.097855,128.92471,https://www.visitbusan.net/uploadImgs/files/cntnts/20220510145207922_ttiel,,
busan-F-00109,FoodService:1221:ko,busan_confirmed,food,FoodService,5,5,ko|en|ja|zhs|zht,,만포밀면옥,기장읍 차성로 322번길 40,기장군,35.245934,129.21597,https://www.visitbusan.net/uploadImgs/files/cntnts/20220510161651267_ttiel,,
busan-F-00110,FoodService:1222:ko,busan_confirmed,food,FoodService,5,5,ko|en|ja|zhs|zht,,맛사랑채,기장읍 읍내로 93-6,기장군,35.24538,129.2147,https://www.visitbusan.net/uploadImgs/files/cntnts/20220510170244967_ttiel,,
busan-F-00111,FoodService:1223:ko,busan_confirmed,food,FoodService,5,5,ko|en|ja|zhs|zht,,우정까망촌돼지,장림번영로 53,사하구,35.08081,128.97154,https://www.visitbusan.net/uploadImgs/files/cntnts/20220510173949671_ttiel,,
busan-F-00112,FoodService:1225:ko,busan_confirmed,food,FoodService,5,5,ko|en|ja|zhs|zht,,금랑횟집 광안리본점,"광안해변로344번길 17-5, 마린리치건물 6층",수영구,35.155155,129.131,https://www.visitbusan.net/uploadImgs/files/cntnts/20220510180602206_ttiel,,
busan-F-00113,FoodService:1226:ko,busan_confirmed,food,FoodService,5,5,ko|en|ja|zhs|zht,,난파센,남천동로108번길 43,수영구,35.14674,129.11339,https://www.visitbusan.net/uploadImgs/files/cntnts/20220511104527053_ttiel,,
busan-F-00114,FoodService:1227:ko,busan_confirmed,food,FoodService,5,5,ko|en|ja|zhs|zht,,화국반점,중구 백산길3,중구,35.10253,129.0342,https://www.visitbusan.net/uploadImgs/files/cntnts/20230602160354975_ttiel,,
busan-F-00115,FoodService:1228:ko,busan_confirmed,food,FoodService,5,5,ko|en|ja|zhs|zht,,로얄경양식&스테이크 광안점,"민락수변로 29, 2층 201~203호",수영구,35.153294,129.12462,https://www.visitbusan.net/uploadImgs/files/cntnts/20220511111431528_ttiel,,
busan-F-00116,FoodService:1229:ko,busan_confirmed,food,FoodService,5,5,ko|en|ja|zhs|zht,,본참치,중구 해관로73,중구,35.10548,129.03526,https://www.visitbusan.net/uploadImgs/files/cntnts/20240419095246698_ttiel,,
busan-F-00117,FoodService:1230:ko,busan_confirmed,food,FoodService,5,5,ko|en|ja|zhs|zht,,무궁화,황령산로8번길 5,수영구,35.14778,129.10925,https://www.visitbusan.net/uploadImgs/files/cntnts/20220511113221248_ttiel,,
busan-F-00118,FoodService:1231:ko,busan_confirmed,food,FoodService,5,5,ko|en|ja|zhs|zht,,어가초밥,자갈치로 41,중구,35.097214,129.02882,https://www.visitbusan.net/uploadImgs/files/cntnts/20220511113442878_ttiel,,
busan-F-00119,FoodService:1232:ko,busan_confirmed,food,FoodService,5,5,ko|en|ja|zhs|zht,,배꼽시계,부산광역시 기장군 일광읍 장곡길 63-14,기장군,35.30255,129.24944,https://www.visitbusan.net/uploadImgs/files/cntnts/20220511115114884_ttiel,,
busan-F-00120,FoodService:1236:ko,busan_confirmed,food,FoodService,5,5,ko|en|ja|zhs|zht,,사랑도횟집,기장읍 차성로 337-1,기장군,35.247726,129.21346,https://www.visitbusan.net/uploadImgs/files/cntnts/20220511131104127_ttiel,,
busan-F-00121,FoodService:1237:ko,busan_confirmed,food,FoodService,5,5,ko|en|ja|zhs|zht,,삼송초밥 부산남포본점,중구 광복로55번길 13,중구,35.099678,129.02986,https://www.visitbusan.net/uploadImgs/files/cntnts/20240419104310358_ttiel,,
busan-F-00122,FoodService:1238:ko,busan_confirmed,food,FoodService,5,5,ko|en|ja|zhs|zht,,솔리보,"일광면 해송4로 21, 201호",기장군,35.26711,129.23145,https://www.visitbusan.net/uploadImgs/files/cntnts/20220511132220417_ttiel,,
busan-F-00123,FoodService:1239:ko,busan_confirmed,food,FoodService,5,5,ko|en|ja|zhs|zht,,부산족발,중구 광복로 13-1,중구,35.09956,129.02664,https://www.visitbusan.net/uploadImgs/files/cntnts/20230608133922872_ttiel,,
busan-F-00124,FoodService:1241:ko,same_place,food,FoodService,5,6,ko|en|ja|zhs|zht,KorService2:2844748:ko,포에버얌 부산기장점,일광면 문오성길 43,기장군,35.282776,129.2583,https://www.visitbusan.net/uploadImgs/files/cntnts/20220511133523476_ttiel,,
busan-F-00125,FoodService:1242:ko,busan_confirmed,food,FoodService,5,5,ko|en|ja|zhs|zht,,물레방아 즉석구이,중구 중앙대로41번길 11-1,중구,35.10104,129.03513,https://www.visitbusan.net/uploadImgs/files/cntnts/20220511134126759_ttiel,,
busan-F-00126,FoodService:1243:ko,busan_confirmed,food,FoodService,5,5,ko|en|ja|zhs|zht,,양귀빈 식당 3호점,수영로646번길 15,수영구,35.163265,129.116,https://www.visitbusan.net/uploadImgs/files/cntnts/20220511135001245_ttiel,,
busan-F-00127,FoodService:1244:ko,busan_confirmed,food,FoodService,5,5,ko|en|ja|zhs|zht,,고민끝에여기,"대영로239번길 12, 1층",동구,35.112698,129.03706,https://www.visitbusan.net/uploadImgs/files/cntnts/20220511135506636_ttiel,,
busan-F-00128,FoodService:1245:ko,busan_confirmed,food,FoodService,5,5,ko|en|ja|zhs|zht,,명송초밥,해관로 32,중구,35.101738,129.03586,https://www.visitbusan.net/uploadImgs/files/cntnts/20220511140134038_ttiel,,
busan-F-00129,FoodService:1246:ko,busan_confirmed,food,FoodService,5,5,ko|en|ja|zhs|zht,,다께,범일로102번길 12,동구,35.138863,129.06076,https://www.visitbusan.net/uploadImgs/files/cntnts/20220511140420748_ttiel,,
busan-F-00130,FoodService:1247:ko,busan_confirmed,food,FoodService,5,5,ko|en|ja|zhs|zht,,남포삼계탕,남포길 16,중구,35.098812,129.03049,https://www.visitbusan.net/uploadImgs/files/cntnts/20220511141051338_ttiel,,
busan-F-00131,FoodService:1248:ko,busan_confirmed,food,FoodService,5,5,ko|en|ja|zhs|zht,,지에이비148,"광안해변로 122, 삼익비치B상가 2층",수영구,35.145763,129.11497,https://www.visitbusan.net/uploadImgs/files/cntnts/20220511141322616_ttiel,,
busan-F-00132,FoodService:1249:ko,busan_confirmed,food,FoodService,5,5,ko|en|ja|zhs|zht,,대수정,자성로 133번길 46,동구,35.140755,129.06291,https://www.visitbusan.net/uploadImgs/files/cntnts/20220511141556325_ttiel,,
busan-F-00133,FoodService:1250:ko,busan_confirmed,food,FoodService,5,5,ko|en|ja|zhs|zht,,목장원,영도구 절영로 355,영도구,35.07162,129.05736,https://www.visitbusan.net/uploadImgs/files/cntnts/20240418142211660_ttiel,,
busan-F-00134,FoodService:1251:ko,busan_confirmed,food,FoodService,5,5,ko|en|ja|zhs|zht,,톤쇼우 광안점,광안해변로279번길 13,수영구,35.15631,129.12474,https://www.visitbusan.net/uploadImgs/files/cntnts/20220511142349184_ttiel,,
busan-F-00135,FoodService:1252:ko,same_place,food,FoodService,5,6,ko|en|ja|zhs|zht,KorService2:2869454:ko,그라치에,영도구 청학동로 12,영도구,35.089043,129.06154,https://www.visitbusan.net/uploadImgs/files/cntnts/20240418141051840_ttiel,,
busan-F-00136,FoodService:1255:ko,busan_confirmed,food,FoodService,5,5,ko|en|ja|zhs|zht,,동촌황정순수육전골,조방로39-12,동구,35.13937,129.06071,https://www.visitbusan.net/uploadImgs/files/cntnts/20220511153102499_ttiel,,
busan-F-00137,FoodService:1256:ko,busan_confirmed,food,FoodService,5,5,ko|en|ja|zhs|zht,,소우닭계,조방로 16번길 20,동구,35.13942,129.0646,https://www.visitbusan.net/uploadImgs/files/cntnts/20220511154322467_ttiel,,
busan-F-00138,FoodService:1257:ko,busan_confirmed,food,FoodService,5,5,ko|en|ja|zhs|zht,,양지추어탕,중앙대로371번길 70-4,동구,35.130672,129.04565,https://www.visitbusan.net/uploadImgs/files/cntnts/20220511160051644_ttiel,,
busan-F-00139,FoodService:1260:ko,busan_confirmed,food,FoodService,5,5,ko|en|ja|zhs|zht,,초량통닭,초량로 15,동구,35.118904,129.03996,https://www.visitbusan.net/uploadImgs/files/cntnts/20220511163126270_ttiel,,
busan-F-00140,FoodService:1262:ko,busan_confirmed,food,FoodService,5,5,ko|en|ja|zhs|zht,,홍성방 본점,동구 중앙대로 179번길 16,동구,35.113834,129.03781,https://www.visitbusan.net/uploadImgs/files/cntnts/20240416173708292_ttiel,,
busan-F-00141,FoodService:1264:ko,busan_confirmed,food,FoodService,5,5,ko|en|ja|zhs|zht,,먹음직 온천천점,온천천로431번길 4-1,동래구,35.19219,129.1003,https://www.visitbusan.net/uploadImgs/files/cntnts/20220511173540705_ttiel,,
busan-F-00142,FoodService:1265:ko,busan_confirmed,food,FoodService,5,5,ko|en|ja|zhs|zht,,미미루,온천장로 91-1,동래구,35.219486,129.08296,https://www.visitbusan.net/uploadImgs/files/cntnts/20240417100446762_ttiel,,
busan-F-00143,FoodService:1266:ko,busan_confirmed,food,FoodService,5,5,ko|en|ja|zhs|zht,,밀보스79,명륜로129번나길 11,동래구,35.2058,129.08028,https://www.visitbusan.net/uploadImgs/files/cntnts/20220511175416697_ttiel,,
busan-F-00144,FoodService:1268:ko,busan_confirmed,food,FoodService,5,5,ko|en|ja|zhs|zht,,세연정,충렬대로 149,동래구,35.20514,129.07704,https://www.visitbusan.net/uploadImgs/files/cntnts/20220512093357835_ttiel,,
busan-F-00145,FoodService:1269:ko,busan_confirmed,food,FoodService,5,5,ko|en|ja|zhs|zht,,조방낙지마당,사직북로47번길 14-4,동래구,35.19913,129.05907,https://www.visitbusan.net/uploadImgs/files/cntnts/20220512094717830_ttiel,,
busan-F-00146,FoodService:1270:ko,busan_confirmed,food,FoodService,5,5,ko|en|ja|zhs|zht,,초록담미역국,"동래구 사직로 73, 2층",동래구,35.194927,129.05788,https://www.visitbusan.net/uploadImgs/files/cntnts/20230608101144664_ttiel,,
busan-F-00147,FoodService:1271:ko,same_place,food,FoodService,4,5,ko|en|ja|zhs,KorService2:2869532:ko,타이빈,동래구 금강로73번길 12,동래구,35.216263,129.0773,https://www.visitbusan.net/uploadImgs/files/cntnts/20250515170015997_ttiel,,
busan-F-00148,FoodService:1272:ko,busan_confirmed,food,FoodService,5,5,ko|en|ja|zhs|zht,,경찰서옆초밥집,부산광역시 부산진구 부전로 92 1층,부산진구,35.159702,129.05392,https://www.visitbusan.net/uploadImgs/files/cntnts/20220512104118922_ttiel,,
busan-F-00149,FoodService:1273:ko,busan_confirmed,food,FoodService,5,5,ko|en|ja|zhs|zht,,동백아가씨1961 서면점,서전로37번길 18,부산진구,35.158566,129.064,https://www.visitbusan.net/uploadImgs/files/cntnts/20220512105240390_ttiel,,
busan-F-00150,FoodService:1275:ko,busan_confirmed,food,FoodService,5,5,ko|en|ja|zhs|zht,,장어촌,부산진구 부전로96번길 36,부산진구,35.15863,129.05667,https://www.visitbusan.net/uploadImgs/files/cntnts/20230602134652545_ttiel,,
busan-F-00151,FoodService:1276:ko,busan_confirmed,food,FoodService,5,5,ko|en|ja|zhs|zht,,전통음식점 원양,동평로 420번길 23,부산진구,35.172222,129.06995,https://www.visitbusan.net/uploadImgs/files/cntnts/20220512113115093_ttiel,,
busan-F-00152,FoodService:1277:ko,busan_confirmed,food,FoodService,5,5,ko|en|ja|zhs|zht,,구공탄,동평로 75,부산진구,35.165436,129.03777,https://www.visitbusan.net/uploadImgs/files/cntnts/20220512114353372_ttiel,,
busan-F-00153,FoodService:1278:ko,busan_confirmed,food,FoodService,5,5,ko|en|ja|zhs|zht,,금용만두,구포만세길 75,북구,35.205463,128.99666,https://www.visitbusan.net/uploadImgs/files/cntnts/20240417154726545_ttiel,,
busan-F-00154,FoodService:1279:ko,busan_confirmed,food,FoodService,5,5,ko|en|ja|zhs|zht,,웅천집,금곡대로616번길 7-14,북구,35.26257,129.0153,https://www.visitbusan.net/uploadImgs/files/cntnts/20220512131313725_ttiel,,
busan-F-00155,FoodService:1281:ko,busan_confirmed,food,FoodService,5,5,ko|en|ja|zhs|zht,,평양집,금곡대로 20번길 21,북구,35.212116,129.00589,https://www.visitbusan.net/uploadImgs/files/cntnts/20220512143357001_ttiel,,
busan-F-00156,FoodService:1282:ko,busan_confirmed,food,FoodService,5,5,ko|en|ja|zhs|zht,,대왕불맛,"덕상로 54, 1층",사상구,35.17614,128.99005,https://www.visitbusan.net/uploadImgs/files/cntnts/20220512145041261_ttiel,,
busan-F-00157,FoodService:1284:ko,busan_confirmed,food,FoodService,5,5,ko|en|ja|zhs|zht,,전골그집 주례본점,"가야대로 268-15, 1층",사상구,35.149475,129.00208,https://www.visitbusan.net/uploadImgs/files/cntnts/20220512155859812_ttiel,,
busan-F-00158,FoodService:1286:ko,busan_confirmed,food,FoodService,5,5,ko|en|ja|zhs|zht,,함양본가어탕국수,사상로181번길36,사상구,35.159695,128.98518,https://www.visitbusan.net/uploadImgs/files/cntnts/20220512164338161_ttiel,,
busan-F-00159,FoodService:1287:ko,busan_confirmed,food,FoodService,5,5,ko|en|ja|zhs|zht,,오공떵번,"승학로 50, 1층",사하구,35.105663,128.9738,https://www.visitbusan.net/uploadImgs/files/cntnts/20220512165954952_ttiel,,
busan-F-00160,FoodService:1289:ko,busan_confirmed,food,FoodService,5,5,ko|en|ja|zhs|zht,,우연횟집,"낙동대로535번길18, 1층",사하구,35.11137,128.96355,https://www.visitbusan.net/uploadImgs/files/cntnts/20220512175424144_ttiel,,
busan-F-00161,FoodService:1436:ko,same_place,food,FoodService,5,6,ko|en|ja|zhs|zht,KorService2:2869196:ko,마파람해물찜해물탕 구서본점,금정구 금강로 418 2층,금정구,35.244667,129.08856,https://www.visitbusan.net/uploadImgs/files/cntnts/20230523140214260_ttiel,,
busan-F-00162,FoodService:1437:ko,busan_confirmed,food,FoodService,5,5,ko|en|ja|zhs|zht,,청해수산,영도구 태종로 113번길 35,영도구,35.092476,129.0438,https://www.visitbusan.net/uploadImgs/files/cntnts/20240418144242123_ttiel,,
